SuburbID;Country;Province;SuburbName;PostCode;Latitude;Longitude
1;South Africa;Eastern Cape;Gqaka;;-31.553917;28.210587
2;South Africa;Eastern Cape;Gqaqala;;-31.275246;28.422504
3;South Africa;Eastern Cape;Gqiba;;-32.293342;28.686302
4;South Africa;Eastern Cape;Gqobonco;;-31.623649;28.255605
5;South Africa;Eastern Cape;Gqogqora;;-31.466667;28.533333
6;South Africa;Eastern Cape;Gqola;;-33.175137;27.52234
7;South Africa;Eastern Cape;Gqoloma;;-30.881152;28.845627
8;South Africa;Eastern Cape;Gqora;;-33.116667;27.05
9;South Africa;Eastern Cape;Gqubeni;;-31.886576;29.055966
10;South Africa;Eastern Cape;Gqubonco;;-31.616963;28.193974
11;South Africa;Eastern Cape;Gqukangqa;;-31.019779;28.604282
12;South Africa;Eastern Cape;Gqukungqa;;-31.019779;28.604282
13;South Africa;Eastern Cape;Gqukunqa;;-31.019779;28.604282
14;South Africa;Eastern Cape;Gqunce;;-32.295741;28.379101
15;South Africa;Eastern Cape;Gqunge;;-32.450818;28.53111
16;South Africa;Eastern Cape;Gqunge Trading Store;;-32.466667;28.55
17;South Africa;Eastern Cape;Gqunqe;;-32.45;28.45
18;South Africa;Eastern Cape;Gqutyini;;-31.626616;27.881495
19;South Africa;Eastern Cape;Gqwesa;;-30.8943;28.742831
20;South Africa;Mpumalanga;Gqweta;;-24.909926;31.039323
21;South Africa;Eastern Cape;Graaff-Reinet;6280;-32.25;24.55
22;South Africa;Eastern Cape;Graaf Reinet;;-32.25;24.55
23;South Africa;Western Cape;Graafwater;8120;-32.154656;18.603187
24;South Africa;Western Cape;Grabouw;7160;-34.151519;19.015091
25;South Africa;Eastern Cape;Grahamstad;;-33.304216;26.53276
26;South Africa;Eastern Cape;Grahamstown;;-33.304216;26.53276
27;South Africa;Gauteng;Graley;;-25.766667;28.85
28;South Africa;KwaZulu Natal;Grantham Park;;-28.765959;31.899037
29;South Africa;North West;Grantion;;-27.057882;23.430365
30;South Africa;KwaZulu Natal;Grantleigh;;-28.85;29.633333
31;South Africa;North West;Grantleigh;;-25.857579;25.695491
32;South Africa;Northern Cape;Grasbult;;-29.64894;22.229218
33;South Africa;Mpumalanga;Graskop;;-24.931442;30.841908
34;South Africa;Gauteng;Grasmere;;-26.427497;27.86023
35;South Africa;Northern Cape;Graspan;;-30.106538;22.485489
36;South Africa;Northern Cape;Grasrug;;-27.613558;23.887684
37;South Africa;Eastern Cape;Grassdale;;-31.398824;26.510452
38;South Africa;Free State;Grasslands;;-29.155451;26.288537
39;South Africa;Eastern Cape;Grasslands;;-31.327672;26.306253
40;South Africa;Northern Cape;Grassmoor;;-29.92664;22.191315
41;South Africa;Eastern Cape;Grassridge;;-31.785588;25.452898
42;South Africa;Limpopo;Grassvallei;;-24.679431;29.333148
43;South Africa;Limpopo;Grass Valley;;-24.679431;29.333148
44;South Africa;Free State;Grassville;;-29.155451;26.288537
45;South Africa;Western Cape;Grassy Park;;-34.047195;18.498626
46;South Africa;Limpopo;Gravelotte;;-23.953075;30.618951
47;South Africa;North West;Grayfield;;-26.9;23.616667
48;South Africa;Western Cape;Great Brak River;;-34.043679;22.225741
49;South Africa;Eastern Cape;Greenfields;;-33.033298;27.862158
50;South Africa;Eastern Cape;Greenfontein;;-31.416667;25.9
51;South Africa;Western Cape;Greenhaven;;-34.040869;22.209714
52;South Africa;KwaZulu Natal;Greenhill;;-29.827099;30.306303
53;South Africa;Northern Cape;Green Island;;-28.616667;16.483333
54;South Africa;Eastern Cape;Greenlands;;-33.083333;26.766667
55;South Africa;Western Cape;Green Point;;-33.910012;18.403859
56;South Africa;Mpumalanga;Green Valley;;-24.598522;31.021159
57;South Africa;Gauteng;Greenview;;-25.731389;28.397778
58;South Africa;North West;Greenwich;;-26.170523;23.110501
59;South Africa;KwaZulu Natal;Greenwood Park;4051;-29.783333;31.016667
60;South Africa;Limpopo;Gregory;;-22.644641;28.946264
61;South Africa;Northern Cape;Grey Hill;;-28.133333;23.983333
62;South Africa;Mpumalanga;Greylingstad;;-26.744627;28.744426
63;South Africa;Free State;Greys;;-28.616667;28.816667
64;South Africa;Eastern Cape;Greystone;;-31.899608;26.04517
65;South Africa;KwaZulu Natal;Greystorie;;-29.071943;29.798419
66;South Africa;Western Cape;Greyton;;-34.050482;19.608844
67;South Africa;KwaZulu Natal;Greytown;;-29.064155;30.592786
68;South Africa;KwaZulu Natal;Greyville;;-29.833333;31
69;South Africa;Eastern Cape;Griebdale;;-31.483973;28.608894
70;South Africa;Northern Cape;Griekwastad;;-28.851407;23.252483
71;South Africa;Northern Cape;Griquatown;;-28.851407;23.252483
72;South Africa;Limpopo;Groblerbrug;;-22.999394;27.945833
73;South Africa;Limpopo;Groblersbrug;;-22.999394;27.945833
74;South Africa;Mpumalanga;Groblersdal;;-25.168434;29.394123
75;South Africa;Northern Cape;Groblershoop;;-28.895309;21.983782
76;South Africa;Northern Cape;Groendal;;-29.404751;22.417589
77;South Africa;Western Cape;Groendal;;-33.892644;19.100525
78;South Africa;Free State;Groen Draai;;-28.433253;28.587358
79;South Africa;Eastern Cape;Groenedal;;-31.666667;27.366667
80;South Africa;Free State;Groenfontein;;-30.072403;26.331926
81;South Africa;Eastern Cape;Groenfontein;;-31.639395;26.133002
82;South Africa;Western Cape;Groenfontein;;-33.108493;19.347758
83;South Africa;KwaZulu Natal;Groenkloof;0181;-27.416667;30.283333
84;South Africa;Eastern Cape;Groenkloof;;-31.780887;25.509056
85;South Africa;Free State;Groenpoort;;-30.416233;26.689412
86;South Africa;Gauteng;Groenpunt;;-26.826341;28.038443
87;South Africa;Western Cape;Groenpunt;;-33.910012;18.403859
88;South Africa;Free State;Groenvlakte;;-30.028035;26.109107
89;South Africa;KwaZulu Natal;Groenvlei;;-27.459055;30.23027
90;South Africa;Eastern Cape;Groenvlei;;-31.021026;26.403782
91;South Africa;Limpopo;Groenvlei;;-24.266667;27.483333
92;South Africa;Limpopo;Groesbeek;;-23.866667;28.433333
93;South Africa;Northern Cape;Grootberg;;-30.283333;17.733333
94;South Africa;Western Cape;Groot-Brakrivier;;-34.043679;22.225741
95;South Africa;Free State;Grootdam;;-29.380768;26.920356
96;South Africa;Eastern Cape;Grootdam;;-31.482609;26.20689
97;South Africa;Northern Cape;Grootderm;;-28.528239;16.61608
98;South Africa;Mpumalanga;Groot Drakenstein;;-26.05;29.683333
99;South Africa;Northern Cape;Grootdrink;;-26.494937;22.278767
100;South Africa;Gauteng;Groot-Elandsvlei;;-26.139916;27.6703
101;South Africa;Free State;Grootfontein;;-29.63352;26.296903
102;South Africa;Western Cape;Grootfontein;;-33;18.2
103;South Africa;Free State;Grootgeluk;2952;-29.449312;25.98163
104;South Africa;Mpumalanga;Grootgewaagd;;-26.661048;29.859672
105;South Africa;Free State;Groot Highlands;;-29.85;26.55
106;South Africa;Free State;Groothoek;;-29.283333;26.866667
107;South Africa;Limpopo;Groothoek;;-23.287147;29.317469
108;South Africa;Western Cape;Groot-Jongensfontein;;-34.42562;21.33995
109;South Africa;Western Cape;Grootjongensfonteinstrand;;-34.42562;21.33995
110;South Africa;KwaZulu Natal;Grootkloof;;-27.416667;30.283333
111;South Africa;North West;Groot-Marico;;-25.597005;26.417238
112;South Africa;Western Cape;Groot Matjiesfontein;;-30.516667;18.533333
113;South Africa;Northern Cape;Groot Mier;;-26.74213;20.33376
114;South Africa;Northern Cape;Grootmis;;-29.651125;17.084218
115;South Africa;Northern Cape;Grootmist;;-29.651125;17.084218
116;South Africa;Mpumalanga;Grootpan;;-25.917957;29.928743
117;South Africa;Limpopo;Grootpan;;-22.765199;28.821927
118;South Africa;Eastern Cape;Grootrivierdrif;;-33.416667;24.666667
119;South Africa;Western Cape;Grootrivier;;-33.383333;19.5
120;South Africa;Eastern Cape;Groot-Samenkomst;;-32.181022;25.275928
121;South Africa;Eastern Cape;Grootschuur;;-31.743034;26.395126
122;South Africa;Western Cape;Groot Silwermyn;;-34.109667;18.405329
123;South Africa;Mpumalanga;Grootspruit;;-27.033333;30.433333
124;South Africa;Eastern Cape;Groot Strydpoort;;-31.381062;25.947006
125;South Africa;Free State;Groot-Suurfontein;;-30.337475;25.811647
126;South Africa;Eastern Cape;Groot Umgazi;;-31.614246;29.42367
127;South Africa;Eastern Cape;Groot-Umngazi;;-31.614246;29.42367
128;South Africa;Free State;Grootverlang;;-29.600608;26.340888
129;South Africa;Free State;Grootvlei;;-30.334147;26.707886
130;South Africa;Eastern Cape;Grootvlei;;-31.343612;25.694423
131;South Africa;Mpumalanga;Grootvlei;;-26.762469;28.483823
132;South Africa;Free State;Grootwater;;-29.653773;26.312565
133;South Africa;Northern Cape;Groot Witberg;;-29.185871;22.353116
134;South Africa;Western Cape;Groot Zwaarmoed;;-33.366667;19.483333
135;South Africa;KwaZulu Natal;Grosvenor;;-29.914416;31.008076
136;South Africa;KwaZulu Natal;Groutville;;-29.389426;31.246065
137;South Africa;Eastern Cape;Groxozayo;;-32.566667;28.483333
138;South Africa;Eastern Cape;Gruisklip;;-31.612843;25.771031
139;South Africa;Free State;Gruisplaats;;-27.25;29.166667
140;South Africa;Northern Cape;Grypoort;;-27.848164;23.488585
141;South Africa;Free State;Grysdal;;-30.133894;26.82461
142;South Africa;Eastern Cape;Guba;;-31.562801;27.366575
143;South Africa;Eastern Cape;Gubahoek;;-31.516423;27.306259
144;South Africa;Eastern Cape;Gubeni;;-32.733333;28.083333
145;South Africa;Eastern Cape;Gubenxa;;-31.35446;28.148033
146;South Africa;Eastern Cape;Gubenxa Kroon;;-31.35446;28.148033
147;South Africa;Eastern Cape;Gubhuzi;;-30.631194;28.968407
148;South Africa;Eastern Cape;Gubuzi;;-30.740639;29.145715
149;South Africa;Eastern Cape;Gudeka;;-31.121759;29.332161
150;South Africa;Eastern Cape;Guduse;;-31.900911;28.55746
151;South Africa;Western Cape;Guguletu;;-33.983511;18.570596
152;South Africa;Eastern Cape;Gugwini;;-30.501519;29.940445
153;South Africa;Free State;Guinesses;;-30.189079;26.994412
154;South Africa;Eastern Cape;Gulandoda;;-31.59792;28.035232
155;South Africa;KwaZulu Natal;Guleka;;-30.333102;30.500248
156;South Africa;KwaZulu Natal;Guliga;;-30.333102;30.500248
157;South Africa;Eastern Cape;Gulu;;-33.114725;27.725931
158;South Africa;Eastern Cape;Gumdale;;-31.167539;26.55582
159;South Africa;Eastern Cape;Gume;;-32.333333;28.816667
160;South Africa;Eastern Cape;Gumzana;;-31.025883;29.984492
161;South Africa;Eastern Cape;Gungululu;;-31.429524;28.860576
162;South Africa;KwaZulu Natal;Gunjana;;-28.644495;30.351765
163;South Africa;Eastern Cape;Gura;;-31.028961;28.83599
164;South Africa;Eastern Cape;Guse;;-31.82693;27.465655
165;South Africa;KwaZulu Natal;Gusenzamo;;-28.17504;31.654167
166;South Africa;Mpumalanga;Guthrie;;-25.6;30.933333
167;South Africa;Mpumalanga;Gutshwa;;-25.266667;31.2
168;South Africa;Mpumalanga;Gutshwe;;-25.299952;31.147185
169;South Africa;Eastern Cape;Guwini;;-30.735568;29.436895
170;South Africa;Eastern Cape;Guxuxu;;-32.319148;28.557515
171;South Africa;Eastern Cape;Gwadana;;-32.214563;28.292797
172;South Africa;Eastern Cape;Gwadu;;-32.183333;28.616667
173;South Africa;Limpopo;Gwalali;;-22.4;31.3
174;South Africa;Eastern Cape;Gwalana;;-33.271336;27.112032
175;South Africa;Limpopo;Gwarriehoek;;-24.733333;27.483333
176;South Africa;Free State;Gwentham;;-29.008988;26.214247
177;South Africa;Mpumalanga;Gweta;;-24.909926;31.039323
178;South Africa;Eastern Cape;Gwili Gwili;;-32.680489;27.20232
179;South Africa;Eastern Cape;Gxaha;;-32.599707;28.377149
180;South Africa;Eastern Cape;Gxaku;;-30.683333;28.633333
181;South Africa;Eastern Cape;Gxara;;-31.999355;28.288117
182;South Africa;Eastern Cape;Gxara Trading Station;;-32.599707;28.377149
183;South Africa;Eastern Cape;Gxokoza;;-31.587855;29.268228
184;South Africa;Eastern Cape;Gxulu;;-33.114725;27.725931
185;South Africa;Eastern Cape;Gxwaleni;;-30.738915;29.528272
186;South Africa;Mpumalanga;Haakdoorndraai;;-25.187978;29.565522
187;South Africa;Northern Cape;Haakdoorn;;-28.983333;22.3
188;South Africa;Mpumalanga;Haakdoringdraai;;-25.187978;29.565522
189;South Africa;Eastern Cape;Haarlem;;-31.044591;26.569909
190;South Africa;Western Cape;Haarlem;;-33.73302;23.342632
191;South Africa;Eastern Cape;Haasfonteindorings;;-31.956656;26.353478
192;South Africa;North West;Haaskraal;;-26.768035;27.034809
193;South Africa;Eastern Cape;Haaspoort;;-31.157645;26.112934
194;South Africa;Eastern Cape;Hackney and Cibini;;-32.333333;26.65
195;South Africa;Eastern Cape;Hackney;;-32.317199;26.645061
196;South Africa;Eastern Cape;Hadiaho;;-30.266667;28.583333
197;South Africa;Eastern Cape;Hadi;;-31.5503;28.8258
198;South Africa;Limpopo;Haenerstburg;;-23.944368;29.944866
199;South Africa;Limpopo;Haenertsburg;;-23.944368;29.944866
200;South Africa;Limpopo;Ha-Folovhodwe;;-22.589149;30.425048
201;South Africa;Eastern Cape;Haga-Haga Bay;;-32.763495;28.246455
202;South Africa;Eastern Cape;Haga-Haga;;-32.763495;28.246455
203;South Africa;Free State;Hagesdam;;-29.358063;25.783446
204;South Africa;Eastern Cape;Haisaka;;-30.25;28.583333
205;South Africa;North West;Hakboslaagte;;-26.327113;26.152982
206;South Africa;Limpopo;Ha-Lambani;;-22.720273;30.831499
207;South Africa;Northern Cape;Halfpadrivier;;-30.516667;20.016667
208;South Africa;Gauteng;Halfway House;;-25.997137;28.129919
209;South Africa;North West;Halifax;;-26.208188;23.226071
210;South Africa;Eastern Cape;Hallack Rock;;-33.966667;25.6
211;South Africa;Eastern Cape;Halseton;;-31.533333;26.816667
212;South Africa;Limpopo;Ha-Madala;;-22.850193;30.281792
213;South Africa;Limpopo;Ha-Madodonga;;-23.091312;29.6793
214;South Africa;Limpopo;Ha-Magau;;-23.132706;29.848093
215;South Africa;Limpopo;Ha-Magoro;;-23.300082;30.315696
216;South Africa;Eastern Cape;Ha-Majoro;;-30.348432;28.456346
217;South Africa;Limpopo;Hamakuya;;-22.636789;30.837469
218;South Africa;Limpopo;Ha-Mamuhoyi;;-22.870657;30.121835
219;South Africa;Limpopo;Ha-Manavhela;;-23.066667;29.616667
220;South Africa;Limpopo;Ha-Mantsha;;-23.07904;29.774448
221;South Africa;Limpopo;Ha-Matsheketsheke;;-22.73424;30.408524
222;South Africa;Limpopo;Ha-Matsika;;-22.858894;30.693608
223;South Africa;Limpopo;Ha-Mavhunga;;-22.924925;30.116817
224;South Africa;Eastern Cape;Hamburg;5641;-33.284099;27.452699
225;South Africa;KwaZulu Natal;Hamewith;;-28.943796;31.719079
226;South Africa;Free State;Hamilton;9301;-30.366147;26.64944
227;South Africa;North West;Hammanskraal;;-25.40892;28.286996
228;South Africa;KwaZulu Natal;Hammarsdale;;-29.800827;30.651961
229;South Africa;KwaZulu Natal;Hammersdale;;-29.800827;30.651961
230;South Africa;Eastern Cape;Ha-Mothibisi;;-30.36058;28.35087
231;South Africa;Eastern Cape;Hamsini;;-31.794713;29.084882
232;South Africa;Limpopo;Ha-Mubua;;-23.1;29.733333
233;South Africa;Free State;Hanakoe;;-29.45707;26.986696
234;South Africa;Limpopo;Hananwa;;-23.083333;28.95
235;South Africa;Limpopo;Hanglip;;-24.216667;28.766667
236;South Africa;Limpopo;Haningfontein;;-24.45;28.266667
237;South Africa;Eastern Cape;Hankey;;-33.833079;24.883586
238;South Africa;Western Cape;Hannskop;;-33.45;23.216667
239;South Africa;Eastern Cape;Ha-Nokholoko;;-30.616638;28.228445
240;South Africa;Eastern Cape;Hanover;7005;-32.818993;27.480597
241;South Africa;Mpumalanga;Hanover;;-26.797338;29.777589
242;South Africa;Northern Cape;Hanover;;-31.06856;24.442516
243;South Africa;Western Cape;Hanover Park;;-33.994609;18.529775
244;South Africa;Northern Cape;Hanover Road;;-30.952372;24.53683
245;South Africa;Northern Cape;Hanoverweg;;-30.952372;24.53683
246;South Africa;Mpumalanga;Hanslaagte;;-24.933333;30.2
247;South Africa;Limpopo;Hans Masibislokasie;;-23.983333;28.833333
248;South Africa;KwaZulu Natal;Hansonia;;-29.7;29.716667
249;South Africa;Limpopo;Hans se Kaalte;;-24.45;28.35
250;South Africa;Eastern Cape;Happy Home;;-32.854591;28.07809
251;South Africa;Limpopo;Happy Rest;;-23.033333;29.733333
252;South Africa;Eastern Cape;Happy Valley;7580;-32.477756;27.074449
253;South Africa;Northern Cape;Happy Valley;;-29.573955;22.178562
254;South Africa;Western Cape;Happy Valley;;-33.933406;20.074828
255;South Africa;Eastern Cape;Ha-Qhadi;;-30.613586;28.468414
256;South Africa;Limpopo;Ha-Rabali;;-22.878584;30.093927
257;South Africa;Limpopo;Ha-Radali;;-22.908299;30.437232
258;South Africa;Limpopo;Ha-Ramahantsha;;-23.106352;29.763354
259;South Africa;Eastern Cape;Ha-Ramarolong;;-30.238564;28.413374
260;South Africa;Free State;Ha-Rankopane;;-28.557022;28.83464
261;South Africa;Free State;Harantsatsa;;-29.150096;26.922
262;South Africa;KwaZulu Natal;Harburg;;-29.410314;30.736979
263;South Africa;Eastern Cape;Hardale;;-31.166216;28.476003
264;South Africa;Limpopo;Hardekraaltjie;;-23.524965;27.215756
265;South Africa;KwaZulu Natal;Harden Heights;;-29.265009;30.620493
266;South Africa;Eastern Cape;Hardeveld;;-31.683333;27.35
267;South Africa;KwaZulu Natal;Harding;;-30.576429;29.884006
268;South Africa;Eastern Cape;Hardop;;-31.733333;25.933333
269;South Africa;Eastern Cape;Harefield;;-32.678884;28.005673
270;South Africa;Western Cape;Harkerville;;-34.037076;23.237533
271;South Africa;Free State;Harmonie;;-27.555036;27.643915
272;South Africa;Eastern Cape;Harmonie;;-31.202501;25.782556
273;South Africa;Limpopo;Harmonie;;-23.803647;28.894199
274;South Africa;Limpopo;Harmony;;-23.090435;29.848545
275;South Africa;Western Cape;Harmony;;-34.116667;18.383333
276;South Africa;North West;Harpington;;-26.78636;27.065584
277;South Africa;Free State;Harrismith;;-28.272758;29.129462
278;South Africa;KwaZulu Natal;Harrison;;-29.733333;30.633333
279;South Africa;North West;Harrow;;-26.312629;23.234459
280;South Africa;Limpopo;Hartbeesbult;;-24.49282;27.418885
281;South Africa;Free State;Hartbeesfontein;;-30.14707;26.14397
282;South Africa;Mpumalanga;Hartbeesfontein;;-26.918545;29.676599
283;South Africa;North West;Hartbeesfontein;;-26.765659;26.420241
284;South Africa;Eastern Cape;Hartbeesnek;;-31.3;26.15
285;South Africa;North West;Hartbeespoort;;-25.733333;27.85
286;South Africa;Limpopo;Hartbeestfontein;;-24.484091;27.736911
287;South Africa;Eastern Cape;Hart Dale;;-31.379367;28.269888
288;South Africa;Free State;Hartebeesfontein;;-30.19654;26.41281
289;South Africa;Eastern Cape;Hartebeesfontein;;-31.633333;26.166667
290;South Africa;Limpopo;Hartebeesfontein;;-24.561515;28.076197
291;South Africa;North West;Hartebeesfontein;;-26.889675;26.806962
292;South Africa;Mpumalanga;Hartebeeskop;;-26.183333;30.933333
293;South Africa;Western Cape;Hartebeeskraal;;-33.767299;19.003749
294;South Africa;Eastern Cape;Hartebeesnek;;-31.966667;26.7
295;South Africa;Limpopo;Hartebeespoort;;-24.514489;28.084703
296;South Africa;Western Cape;Hartebeesrivier;;-34.366667;19.516667
297;South Africa;North West;Hartebeestfontein;;-26.765659;26.420241
298;South Africa;Mpumalanga;Hartebeestkop;;-26.183333;30.933333
299;South Africa;Western Cape;Hartebeestkraal;;-33.767299;19.003749
300;South Africa;North West;Hartebeestpoort;;-25.733333;27.85
301;South Africa;Western Cape;Hartebeest Rivier;;-34.366667;19.516667
302;South Africa;Mpumalanga;Hartebeestspruit;;-26.7;30.15
303;South Africa;Northern Cape;Hartebeest Vlakte;;-28.75;21.566667
304;South Africa;Mpumalanga;Hartelus;;-25.266667;29.833333
305;South Africa;Western Cape;Hartenbos;6520;-34.130523;22.112901
306;South Africa;KwaZulu Natal;Hartlea;;-29.9;29.383333
307;South Africa;Eastern Cape;Hartsdale;;-31.379367;28.269888
308;South Africa;Gauteng;Hartsenbergfontein;;-26.397421;27.956029
309;South Africa;North West;Harts River;;-26.8;25.55
310;South Africa;North West;Hartsrivier;;-26.8;25.55
311;South Africa;Northern Cape;Hartswater;;-27.749639;24.797115
312;South Africa;Gauteng;Hartzenbergfontein;;-26.397421;27.956029
313;South Africa;Limpopo;Hasana;;-23.090954;30.477819
314;South Africa;Eastern Cape;Ha-Sefoko;;-30.404078;28.360523
315;South Africa;Eastern Cape;Hasetati;;-30.454433;28.516239
316;South Africa;Eastern Cape;Hatchleydene;;-32.643075;28.166121
317;South Africa;Eastern Cape;Hatchley;;-32.643075;28.166121
318;South Africa;Gauteng;Hatfield;0083;-25.749728;28.243141
319;South Africa;Gauteng;Hatherley;;-25.733333;28.366667
320;South Africa;Gauteng;Hatherly;;-25.733333;28.366667
321;South Africa;Eastern Cape;Ha-Tlhakanelo;;-30.240377;28.435974
322;South Africa;KwaZulu Natal;Hattingspruit;;-28.079052;30.125204
323;South Africa;North West;Hauptsrus;;-26.55;26.283333
324;South Africa;North West;Hauptsrust;;-26.55;26.283333
325;South Africa;Western Cape;Hawston;;-34.386345;19.130989
326;South Africa;Free State;Hayfield;;-29.098734;26.942266
327;South Africa;KwaZulu Natal;Hay Paddock;;-29.616667;30.416667
328;South Africa;KwaZulu Natal;Hazeldene;;-30.508197;30.529343
329;South Africa;Eastern Cape;Hazeldene;;-31.963123;25.690542
330;South Africa;Western Cape;Hazenjacht;;-33.550528;22.415381
331;South Africa;Mpumalanga;Hazyview;;-25.043983;31.12767
332;South Africa;Eastern Cape;Healdton Fingo;;-32.733333;26.666667
333;South Africa;Eastern Cape;Healdtown;;-32.716667;26.716667
334;South Africa;Gauteng;Heather Bell;;-26.083333;28.333333
335;South Africa;Western Cape;Heatherlands;;-33.949486;22.442853
336;South Africa;Eastern Cape;Heathfield;;-31.846545;26.003817
337;South Africa;Western Cape;Heathfield;;-34.047645;18.46808
338;South Africa;North West;Heathview;;-25.944668;25.39108
339;South Africa;KwaZulu Natal;Heatonville;;-28.661941;31.785615
340;South Africa;North West;Heavyrest Mission;;-27.456445;24.737857
341;South Africa;Eastern Cape;Hebehebe;;-32.236075;27.830299
342;South Africa;Free State;Hebron;;-29.001927;25.962277
343;South Africa;Eastern Cape;Hebron;;-30.675327;26.436019
344;South Africa;North West;Hebron;;-25.550242;28.022796
345;South Africa;Eastern Cape;Heckel;;-32.450664;27.538772
346;South Africa;Mpumalanga;Hectorspruit;;-25.441146;31.68382
347;South Africa;Northern Cape;Hedley Plains;;-29.680453;21.550517
348;South Africa;Free State;Heelfontein;;-29.555184;26.551272
349;South Africa;Free State;Heelgoed;;-30.1;27.3
350;South Africa;Free State;Heeltevrede;;-29.017867;26.182685
351;South Africa;Gauteng;Heidelberg;;-26.504759;28.359214
352;South Africa;Western Cape;Heidelberg;;-34.091267;20.956611
353;South Africa;Gauteng;Heidelburg;;-26.504759;28.359214
354;South Africa;Western Cape;Heideveld;7764;-33.964769;18.548435
355;South Africa;Eastern Cape;Heights;;-33.854513;23.976492
356;South Africa;Free State;Heilbron;;-27.281154;27.970901
357;South Africa;Eastern Cape;Heilbron;;-31.695219;26.06337
358;South Africa;North West;Heiso;;-27.296651;23.828334
359;South Africa;Gauteng;Hekpoort;;-25.882235;27.61654
360;South Africa;Limpopo;Hekpoort;;-23.778107;29.974441
361;South Africa;KwaZulu Natal;Hela Hela;;-29.908307;30.097036
362;South Africa;Free State;Zamdela;1949;-26.837306;27.843526
363;South Africa;Mpumalanga;Zamenkomst;;-24.983333;29.033333
364;South Africa;KwaZulu Natal;Zamokwake;;-27.994763;31.986663
365;South Africa;Eastern Cape;Zanci;;-31.834049;28.858755
366;South Africa;Northern Cape;Zandbergshoop;;-29.616564;21.104566
367;South Africa;Limpopo;Zandbult;;-23.683333;27.25
368;South Africa;Free State;Zanddraai;;-27.841501;28.788046
369;South Africa;Eastern Cape;Zandfontein;;-31.374506;26.202694
370;South Africa;Limpopo;Zandfontein;;-23.728268;29.121947
371;South Africa;Eastern Cape;Zandkraalpoort;;-33.266667;24.016667
372;South Africa;Eastern Cape;Zandkraalspoort;;-33.266667;24.016667
373;South Africa;Western Cape;Zand Rivier;;-33.151437;20.023664
374;South Africa;Eastern Cape;Zandukwane;;-31.380062;28.838693
375;South Africa;Eastern Cape;Zandvlakte;;-33.581871;24.16594
376;South Africa;Northern Cape;Zandvlei;;-30.63181;21.981082
377;South Africa;Eastern Cape;Zangontshi;;-31.144793;29.933558
378;South Africa;Eastern Cape;Zangotsho;;-31.144793;29.933558
379;South Africa;Eastern Cape;Zangqokwe;;-32.075324;26.574481
380;South Africa;Eastern Cape;Zangwa;;-32.427574;28.035784
381;South Africa;Eastern Cape;Zanyokwe;;-32.766667;27.1
382;South Africa;North West;Zaphiri;;-27.15;23.4
383;South Africa;Free State;Zastron;9950;-30.302249;27.083951
384;South Africa;Eastern Cape;Zazulwana Skool;;-32.283333;28.15
385;South Africa;Eastern Cape;Zazulwana;;-32.283333;28.15
386;South Africa;Limpopo;Zebediela Estates;;-24.3;29.25
387;South Africa;Limpopo;Zebedielas Location;;-24.416667;29.383333
388;South Africa;Limpopo;Zebediela;;-24.298378;29.25147
389;South Africa;Western Cape;Zebra;;-33.763701;22.315524
390;South Africa;Free State;Zeekoegat;;-30.367163;26.884615
391;South Africa;KwaZulu Natal;Zeekogat;;-29.45;30.45
392;South Africa;North West;Zeerust;2865;-25.536951;26.075117
393;South Africa;Limpopo;Zending;;-23.1;29.45
394;South Africa;Gauteng;Zesfontein;;-26.082507;28.367682
395;South Africa;Free State;Zevenjaarsfontein;;-30.516667;26.833333
396;South Africa;Eastern Cape;Zhikova;;-33.231547;27.476486
397;South Africa;Eastern Cape;Zibi's;;-32.733333;26.983333
398;South Africa;Eastern Cape;Zibukweni;;-30.99452;29.707741
399;South Africa;Eastern Cape;Zibungu;;-31.471575;29.214067
400;South Africa;Eastern Cape;Zidindi;;-31.990847;29.03103
401;South Africa;Eastern Cape;Zidulini;;-30.914011;28.909367
402;South Africa;Mpumalanga;Ziest;;-25.781768;31.205469
403;South Africa;Eastern Cape;Zigadini;;-32.240151;28.053603
404;South Africa;Eastern Cape;Zigodlo;;-32.981713;27.069835
405;South Africa;Eastern Cape;Zigudu;;-32.166667;27.483333
406;South Africa;Eastern Cape;Zihlahleni;;-32.852254;27.16546
407;South Africa;KwaZulu Natal;Zihlakenpele;;-27.84119;31.835434
408;South Africa;Eastern Cape;Zilandana;;-31.104159;28.83284
409;South Africa;Eastern Cape;Zilangwe;;-30.736268;29.704235
410;South Africa;Eastern Cape;Zimbane;;-30.744858;28.556132
411;South Africa;Eastern Cape;Zimbileni;;-30.970954;28.521865
412;South Africa;Eastern Cape;Zimbungu;;-31.471575;29.214067
413;South Africa;Eastern Cape;Zimpawaneni;;-30.669662;29.118314
414;South Africa;Eastern Cape;Zimpofu;;-30.610295;28.670176
415;South Africa;Eastern Cape;Zincuka;;-30.60944;28.582391
416;South Africa;Eastern Cape;Zincukutwini;;-31.858885;29.116879
417;South Africa;Eastern Cape;Zinduneni;;-31.683333;29.2
418;South Africa;Eastern Cape;Zingadini;;-31.817889;27.663991
419;South Africa;Eastern Cape;Zingcuka;;-30.983749;28.934455
420;South Africa;KwaZulu Natal;Zingolweni;;-30.784086;30.122944
421;South Africa;Eastern Cape;Zingonyameni;;-30.608185;28.535301
422;South Africa;Eastern Cape;Zingqutu;;-31.737194;27.517652
423;South Africa;Eastern Cape;Zingqwene;;-31.70251;27.366481
424;South Africa;Eastern Cape;Zingxala;;-32.461059;28.292473
425;South Africa;Eastern Cape;Zinkawu;;-31.986339;29.053538
426;South Africa;Eastern Cape;Zinkumbini;;-31.433333;29.016667
427;South Africa;Eastern Cape;Zintlawini;;-31.4;28.416667
428;South Africa;Eastern Cape;Zintukwini;;-31.589171;28.469676
429;South Africa;Eastern Cape;Zinyosini;;-31.093449;29.128581
430;South Africa;Eastern Cape;Ziqalabeni;;-30.53127;28.790541
431;South Africa;Eastern Cape;Ziqangweni;;-31.65;29.483333
432;South Africa;Eastern Cape;Ziqhorana;;-32.270029;28.651673
433;South Africa;Northern Cape;Zirkie;;-28.95;22.816667
434;South Africa;Eastern Cape;Zisovini;;-31.583813;26.97655
435;South Africa;Eastern Cape;Zitapile;;-30.569706;28.861246
436;South Africa;Eastern Cape;Zitenjini;;-31.880796;28.84903
437;South Africa;Eastern Cape;Zitenji;;-32.404261;28.668335
438;South Africa;Eastern Cape;Zithulele;;-32.047906;29.059159
439;South Africa;Eastern Cape;Ziwundwana;;-31.983333;28.166667
440;South Africa;Eastern Cape;Ziwundwane;;-31.983333;28.166667
441;South Africa;Eastern Cape;Zixekeni;;-31.933333;28.783333
442;South Africa;Eastern Cape;Zizityaneni;;-30.876794;29.734028
443;South Africa;Western Cape;Zoar;;-33.495597;21.443733
444;South Africa;Limpopo;Zoekmakaar;;-23.492459;29.942164
445;South Africa;Limpopo;Zoekmekaar;;-23.492459;29.942164
446;South Africa;Northern Cape;Zoetap;;-28.772375;20.641862
447;South Africa;Limpopo;Zoetdoorns;;-23.366667;29.4
448;South Africa;Limpopo;Zoetevelden;;-24.726156;29.743045
449;South Africa;Limpopo;Zoetkopjes;;-24.641921;28.971751
450;South Africa;Limpopo;Zoetvelden;;-24.726156;29.743045
451;South Africa;KwaZulu Natal;Zondela;;-28.306163;31.443798
452;South Africa;Northern Cape;Zonderhule South;;-29.666667;20.916667
453;South Africa;Gauteng;Zonderwater;;-25.689545;28.542572
454;South Africa;Eastern Cape;Zonga;;-32.427574;28.035784
455;South Africa;Gauteng;Zonnehoeve;;-26.070272;27.875403
456;South Africa;Western Cape;Zonnekus;;-33.883333;18.483333
457;South Africa;Western Cape;Zonquasdrift;;-33.342928;18.975061
458;South Africa;Mpumalanga;Zoo Als Hy Lykt;;-26.815218;29.86402
459;South Africa;KwaZulu Natal;Zotsha;;-30.783333;30.383333
460;South Africa;Western Cape;Zout Kuil;;-33.516667;20.166667
461;South Africa;Western Cape;Zoutrivier;;-33.932547;18.466182
462;South Africa;KwaZulu Natal;Zuinguin;;-27.633333;30.816667
463;South Africa;Eastern Cape;Zulumema;;-32.241715;26.640541
464;South Africa;KwaZulu Natal;Zuma;;-30.455999;30.086139
465;South Africa;KwaZulu Natal;Zunckels;;-28.85307;29.397663
466;South Africa;KwaZulu Natal;Zungwini;;-27.633333;30.816667
467;South Africa;Gauteng;Zusterstroom;;-25.547049;28.947346
468;South Africa;Western Cape;Zuurbraak;;-34.004425;20.654317
469;South Africa;Free State;Zuurfontein;;-29.833333;26.816667
470;South Africa;Free State;Zuurspruit;;-29.766532;26.38529
471;South Africa;Northern Cape;Zwaar Draai;;-28.65;20.466667
472;South Africa;Limpopo;Zwaartkop Native Location;;-24.7;30.166667
473;South Africa;KwaZulu Natal;Zwartberg;;-30.238399;29.340833
474;South Africa;North West;Zwartbooystad;;-25.26827;28.169312
475;South Africa;Mpumalanga;Zwartfontein Work Colony;;-25.206854;30.944757
476;South Africa;Western Cape;Zwart Klip;;-34.083333;18.683333
477;South Africa;Eastern Cape;Zwartkops;;-33.864057;25.601104
478;South Africa;Eastern Cape;Zwartkop;;-33.864057;25.601104
479;South Africa;Limpopo;Zwartkop;;-24.783333;27.283333
480;South Africa;KwaZulu Natal;Zwartmodderfontein;;-30.422681;28.879968
481;South Africa;Northern Cape;Zwartmodder;;-28.027398;20.552269
482;South Africa;North West;Zwartruggens;;-25.650215;26.688564
483;South Africa;Eastern Cape;Zwartwater;;-31.636543;26.838577
484;South Africa;Northern Cape;Zwartwater;;-28.483333;16.75
485;South Africa;Eastern Cape;Zwa-Zakele;;-33.875934;25.574323
486;South Africa;Western Cape;Zweletemba;6850;-33.648766;19.490119
487;South Africa;Eastern Cape;Zwelidumile;;-32.3;28.6
488;South Africa;Eastern Cape;Zwelitsha;;-32.919991;27.425858
489;South Africa;Eastern Cape;Zwide;;-33.867294;25.563919
490;South Africa;Mpumalanga;Springfontein;;-26.092131;29.987053
491;South Africa;Eastern Cape;Spring Hill;;-32.116667;28.85
492;South Africa;Free State;Springkaanfontein;;-29.515957;27.056234
493;South Africa;Free State;Springs;;-29.469251;26.859645
494;South Africa;Eastern Cape;Springs;1559;-31.466667;28.366667
495;South Africa;Eastern Cape;Spring's;;-32.461584;28.063725
496;South Africa;Gauteng;Springs;1559;-26.25;28.4
497;South Africa;Eastern Cape;Spring Vale South African National Tuberculosis Settlement;;-31.630058;28.67741
498;South Africa;Eastern Cape;Springvale;4051;-31.182426;25.754708
499;South Africa;Eastern Cape;Spring Vale;;-31.630058;28.67741
500;South Africa;Eastern Cape;Springvale;;-31.717554;25.789744
501;South Africa;North West;Springvale;4051;-26.87727;26.807703
502;South Africa;Eastern Cape;Spring Valley;;-30.774648;26.409097
503;South Africa;Gauteng;Spykerras;;-25.455556;28.266944
504;South Africa;Western Cape;Square Hill;;-34.066747;18.465988
505;South Africa;Eastern Cape;Staatsplaas;;-31.683333;27.2
506;South Africa;Limpopo;Stable;;-23.133333;30.516667
507;South Africa;KwaZulu Natal;Stafford's Post;;-30.516667;29.75
508;South Africa;Free State;Stafpoort;;-30.070113;26.386473
509;South Africa;Mpumalanga;Standerston;;-26.933655;29.241518
510;South Africa;Mpumalanga;Standerton;;-26.933655;29.241518
511;South Africa;Western Cape;Standplaas;;-33.977928;22.576874
512;South Africa;Western Cape;Standplaats;;-33.977928;22.576874
513;South Africa;Mpumalanga;Stanfieldhill;;-26.917403;29.209746
514;South Africa;Western Cape;Stanford;;-34.439403;19.456154
515;South Africa;KwaZulu Natal;Stanger;;-29.328164;31.289537
516;South Africa;KwaZulu Natal;Stanger Station;;-29.328164;31.289537
517;South Africa;KwaZulu Natal;Steadmore;;-29.611899;29.539343
518;South Africa;Mpumalanga;Steelpoort;;-24.731176;30.205835
519;South Africa;Free State;Steel's Drift;;-27.355589;29.485141
520;South Africa;Western Cape;Steelwater;;-33.699346;18.58848
521;South Africa;Western Cape;Steenberg;;-34.074425;18.470234
522;South Africa;Limpopo;Steenbokpan;;-23.69532;27.284107
523;South Africa;Western Cape;Steenbras;;-34.15;18.15
524;South Africa;Free State;Stefanus;;-30.533114;26.798661
525;South Africa;Limpopo;Steilloop Bridge;;-23.416318;28.623476
526;South Africa;Limpopo;Steilloopbrug;;-23.416318;28.623476
527;South Africa;Limpopo;Steillopbrug;;-23.416318;28.623476
528;South Africa;North West;Steilnek;;-26.014574;24.809561
529;South Africa;KwaZulu Natal;Steilrand;;-27.8;31.233333
530;South Africa;Eastern Cape;Steinau;;-31.137856;27.272862
531;South Africa;Northern Cape;Steinkopf;;-29.262954;17.733405
532;South Africa;Free State;Stellaland;;-29.616667;26.95
533;South Africa;North West;Stella;8650;-26.552983;24.866835
534;South Africa;Western Cape;Stellenberg;7550;-33.866088;18.659923
535;South Africa;Western Cape;Stellenbosch;;-33.934621;18.866762
536;South Africa;KwaZulu Natal;Stendal;;-28.771258;30.113717
537;South Africa;Free State;Stenekamps Kop;;-28.516667;28.183333
538;South Africa;Free State;Sterkfontein;;-29.784915;26.80914
539;South Africa;Eastern Cape;Sterkfontein;1911;-31.558276;25.664383
540;South Africa;Limpopo;Sterkfontein;1911;-25.033333;29.6
541;South Africa;Mpumalanga;Sterkloop;;-25.5274;29.846342
542;South Africa;Limpopo;Sterkloop;;-23.812179;29.917093
543;South Africa;Limpopo;Sterkrivier;;-24.157874;28.740054
544;South Africa;Eastern Cape;Sterkspruit;9762;-30.526512;27.367425
545;South Africa;Mpumalanga;Sterkspruit;9762;-25.373544;30.528783
546;South Africa;Free State;Sterkstroom;5425;-30.575602;26.945455
547;South Africa;Eastern Cape;Sterkstroom;5425;-31.557139;26.554165
548;South Africa;Free State;Sterkwater;;-30.378806;26.70655
549;South Africa;Free State;Sterlefontein;;-29.25;26.066667
550;South Africa;Eastern Cape;Sterling Park;;-31.812832;26.42732
551;South Africa;Northern Cape;Sternham;;-28.895309;21.983782
552;South Africa;Free State;Steunmekaar;9392;-29.503143;25.524089
553;South Africa;Eastern Cape;Stevnsrus;;-31.294845;25.79783
554;South Africa;North West;Stewartby;;-26.133333;26.183333
555;South Africa;Eastern Cape;Stewarton;;-30.883333;26.2
556;South Africa;Eastern Cape;Steynsburg;;-31.295649;25.823382
557;South Africa;Mpumalanga;Steynsdorp;;-26.118163;30.981736
558;South Africa;Free State;Steynskraal;;-29.452651;25.704191
559;South Africa;Eastern Cape;Steynsnek;;-31.175417;26.856302
560;South Africa;Free State;Steynsrus;;-27.953333;27.563944
561;South Africa;Free State;Steynsrust;7130;-27.953333;27.563944
562;South Africa;Eastern Cape;Steynsrust;7130;-30.856867;26.771302
563;South Africa;Eastern Cape;Steytlerville;6250;-33.332744;24.34539
564;South Africa;North West;Sthaberg;;-25.41136;27.123867
565;South Africa;Northern Cape;Stiebeuelvlei;;-30.416667;20.95
566;South Africa;Western Cape;Stilbaai-Oos;;-34.368528;21.42083
567;South Africa;Western Cape;Stilbaai;;-34.369303;21.407481
568;South Africa;Western Cape;Stilbaaistrand;;-34.368528;21.42083
569;South Africa;Western Cape;Stilbaai-Wes;6674;-34.379044;21.417225
570;South Africa;Free State;Stilfontein;;-29.493227;26.597143
571;South Africa;North West;Stilfontein;;-26.844926;26.768294
572;South Africa;Gauteng;Stil Gelee;;-25.595044;28.262489
573;South Africa;Western Cape;Still Bay East;;-34.368528;21.42083
574;South Africa;Western Cape;Still Bay;;-34.369303;21.407481
575;South Africa;Western Cape;Still Bay Strand;;-34.368528;21.42083
576;South Africa;Western Cape;Still Bay West;;-34.379044;21.417225
577;South Africa;Free State;Stillerus;;-29.3;26.6
578;South Africa;Northern Cape;Stillerus;;-29.054977;21.995577
579;South Africa;North West;Stillerus;;-27.26267;23.861132
580;South Africa;Free State;Stillerust;;-29.445332;25.719659
581;South Africa;Eastern Cape;Stillerust;;-31.108198;26.135173
582;South Africa;Free State;Stillestroom;;-29.667327;26.070199
583;South Africa;Free State;Stille Woning;;-29.039193;26.048673
584;South Africa;Northern Cape;Stilstaan-en-Afspring;;-29.791615;21.025481
585;South Africa;Northern Cape;Stilverwag;;-29.787053;21.975256
586;South Africa;Northern Cape;Stinkbrak;;-30.157294;22.055812
587;South Africa;Northern Cape;Stinkfontein;;-28.823496;17.254173
588;South Africa;Free State;Stinkhoutfontein;;-29.809788;26.014333
589;South Africa;Eastern Cape;Stinkord;;-30.848402;28.615524
590;South Africa;Northern Cape;Stink Puts;;-30.266667;20.183333
591;South Africa;North West;Stinkwater;;-25.387942;28.15817
592;South Africa;Eastern Cape;Stock Basin;;-31.610634;27.504348
593;South Africa;Eastern Cape;Stockdale;;-31.710556;26.048839
594;South Africa;Eastern Cape;Stockton;;-31.247181;25.53084
595;South Africa;Western Cape;Stockville;;-33.849999;20.115027
596;South Africa;Northern Cape;Stofbakkies;;-29.666667;19.2
597;South Africa;Gauteng;Stofberg-Gedenkskool;;-26.833333;28.066667
598;South Africa;Gauteng;Stofberg;;-26.833333;28.066667
599;South Africa;Gauteng;Stoffberggedenkskool;;-26.833333;28.066667
600;South Africa;Mpumalanga;Stoffberg;;-25.416667;28.833333
601;South Africa;North West;Stoffelshoek;;-25.89496;23.197091
602;South Africa;Eastern Cape;Stokwes Basin;;-31.610634;27.504348
603;South Africa;Western Cape;Stompneusbaai;;-32.724192;17.975436
604;South Africa;Western Cape;Stompneus Bay;;-32.724192;17.975436
605;South Africa;Mpumalanga;Stomp;;-25.192262;29.10553
606;South Africa;Limpopo;Stone Edge;;-23.023566;29.897816
607;South Africa;Eastern Cape;Stoneleigh;;-31.041533;25.686322
608;South Africa;Eastern Cape;Stoneycroft;;-30.810979;26.343684
609;South Africa;Eastern Cape;Stoney Croft;;-31.682617;27.320084
610;South Africa;KwaZulu Natal;Ston;;-29.333333;30.966667
611;South Africa;Free State;Stoomhoek;;-28.807514;26.105131
612;South Africa;Eastern Cape;Stormberg;;-31.283333;26.283333
613;South Africa;Eastern Cape;Storms River;;-33.973789;23.886632
614;South Africa;Eastern Cape;Stormsriviermond;;-34.019898;23.896281
615;South Africa;Eastern Cape;Stormsrivier;;-33.973789;23.886632
616;South Africa;Western Cape;Stormsvlei;;-34.083391;20.096196
617;South Africa;Northern Cape;Strandfontein;;-30.966667;17.666667
618;South Africa;Western Cape;Strandfontein;;-34.073097;18.561189
619;South Africa;Western Cape;Strandskloof;;-34.578137;19.44257
620;South Africa;Western Cape;Strand;;-34.106869;18.827513
621;South Africa;Gauteng;Strathavon;2196;-26.1;28.066667
622;South Africa;Eastern Cape;Strathfield;;-31.568734;26.680767
623;South Africa;KwaZulu Natal;Strathmore Park;;-28.172757;30.212473
624;South Africa;KwaZulu Natal;Strathroy;;-30.558469;28.880282
625;South Africa;Northern Cape;Straussburg;;-28.4381;21.332139
626;South Africa;Mpumalanga;Strazon Estates;;-26.166667;28.95
627;South Africa;Limpopo;Streatham;;-24.316667;30.283333
628;South Africa;Western Cape;Struisbaai;;-34.803655;20.054739
629;South Africa;Western Cape;Struis Bay;;-34.803655;20.054739
630;South Africa;Northern Cape;Struishoek;;-28.845035;17.262103
631;South Africa;KwaZulu Natal;Strydberg Post;;-30.610205;29.220571
632;South Africa;Northern Cape;Strydenburg;;-29.94313;23.676003
633;South Africa;KwaZulu Natal;Strydfontein;;-30.467768;29.111807
634;South Africa;Free State;Strydfontein;;-30.221281;26.255733
635;South Africa;Eastern Cape;Strydfontein;;-30.798355;26.947665
636;South Africa;Gauteng;Strydfontein;;-25.637033;28.040381
637;South Africa;North West;Strydfontein;;-25.045837;26.304178
638;South Africa;Limpopo;Strydkraal;;-24.470017;29.713806
639;South Africa;Free State;Strydom College;;-29.166667;26.783333
640;South Africa;Free State;Strydpoort;;-30.543028;26.605718
641;South Africa;Limpopo;Studholme;;-22.968531;29.969394
642;South Africa;Eastern Cape;Studtis;;-33.545312;23.983182
643;South Africa;Eastern Cape;Stutterheim;4930;-32.57076;27.423961
644;South Africa;Northern Cape;Stuurmanspoort;;-30.763773;21.990811
645;South Africa;KwaZulu Natal;Stylrand;;-27.8;31.233333
646;South Africa;Northern Cape;Subridge;;-28.959166;22.515555
647;South Africa;Eastern Cape;Sugarbush;;-30.818554;29.202893
648;South Africa;Eastern Cape;Suger Bush;;-30.818554;29.202893
649;South Africa;Eastern Cape;Suideinde;;-33.973393;25.620363
650;South Africa;Free State;Suidelyn;;-30.159226;26.940531
651;South Africa;Western Cape;Suiderkruis;;-34.057898;22.226938
652;South Africa;Western Cape;Suider-Paarl;;-33.768168;18.966352
653;South Africa;Limpopo;Suid-Holland;;-23.890356;28.913758
654;South Africa;North West;Suikerbostuin;;-25.833333;27.133333
655;South Africa;Northern Cape;Suikersteek;;-28.366667;20.166667
656;South Africa;KwaZulu Natal;Suits Me;;-28.721915;32.04246
657;South Africa;Limpopo;Sukani;;-23.316667;30.716667
658;South Africa;Northern Cape;Sukses;;-30.545989;21.693993
659;South Africa;Eastern Cape;Sulenkama;;-31.017873;28.686056
660;South Africa;Mpumalanga;Sulphur Springs;;-27.178711;31.095201
661;South Africa;Mpumalanga;Sulphur Spring;;-27.178711;31.095201
662;South Africa;Northern Cape;Sultanaoord;;-28.416139;21.458677
663;South Africa;Free State;Summer Pride;;-29.205522;26.274465
664;South Africa;Eastern Cape;Summer Pride;;-30.695572;26.474169
665;South Africa;Eastern Cape;Summerstrand;;-33.990685;25.66376
666;South Africa;Limpopo;Sumsare;;-23.187867;30.275624
667;South Africa;North West;Sun City;;-25.346381;27.097333
668;South Africa;KwaZulu Natal;Sundrift;;-30.729767;29.828351
669;South Africa;KwaZulu Natal;Sundumbili;;-29.133711;31.397521
670;South Africa;Eastern Cape;Sunduza;;-32.133333;28.683333
671;South Africa;Eastern Cape;Sunduzi;;-32.133333;28.683333
672;South Africa;Eastern Cape;Sundwana;;-31.472279;28.060803
673;South Africa;Eastern Cape;Sundwane;;-31.472279;28.060803
674;South Africa;KwaZulu Natal;Sunkelsdrif;;-27.3;30.683333
675;South Africa;KwaZulu Natal;Sunkels Drift;;-27.3;30.683333
676;South Africa;Eastern Cape;Sunlands;;-33.936798;25.402285
677;South Africa;Eastern Cape;Sunland;;-33.516667;25.616667
678;South Africa;Limpopo;Sunningdale;;-24.350113;29.250726
679;South Africa;Western Cape;Sunnyacres;;-34.133333;18.383333
680;South Africa;Western Cape;Sunnycroft;;-34.133333;18.383333
681;South Africa;Free State;Sunnydale;;-30.406799;26.66686
682;South Africa;Eastern Cape;Sunny Ridge;;-31.607249;26.628913
683;South Africa;Eastern Cape;Sunnyridge;;-33.03989;27.8536
684;South Africa;Western Cape;Sunny Seas;;-34.360415;18.959282
685;South Africa;KwaZulu Natal;Sunnyside;;-29.733333;29.766667
686;South Africa;Free State;Sunnyside;;-26.911664;27.469494
687;South Africa;Eastern Cape;Sunnyside;;-31.337809;26.334916
688;South Africa;Gauteng;Sunnyside;;-25.757459;28.211326
689;South Africa;Western Cape;Sunnyside;;-33.96999;18.517506
690;South Africa;Eastern Cape;Sunray;;-32.627204;28.163629
691;South Africa;Eastern Cape;Sunridge Park;;-33.953986;25.529485
692;South Africa;Eastern Cape;Sunrise-on-Sea;;-32.919607;28.050271
693;South Africa;Eastern Cape;Sunrise;;-33.096223;27.675438
694;South Africa;KwaZulu Natal;Sun Valley Farm;;-29.833333;29.8
695;South Africa;Mpumalanga;Sun Valley In;;-26.08582;28.713448
696;South Africa;Western Cape;Sun Valley;;-34.122855;18.397545
697;South Africa;KwaZulu Natal;Sunwich Port;;-30.663501;30.511416
698;South Africa;North West;Supingstad;;-24.789433;26.054088
699;South Africa;KwaZulu Natal;Surats Store;;-29.65;30.533333
700;South Africa;KwaZulu Natal;Surats;;-29.65;30.533333
701;South Africa;Western Cape;Surrey Estates;;-33.975708;18.544795
702;South Africa;Western Cape;Surrey Estate;;-33.975708;18.544795
703;South Africa;KwaZulu Natal;Surreyvale;;-28.066667;31.033333
704;South Africa;Free State;Susannas Rust;;-28.113014;28.111054
705;South Africa;Gauteng;Susterstroom;;-25.547049;28.947346
706;South Africa;Limpopo;Suswe;;-23.875022;28.694269
707;South Africa;Eastern Cape;Sutcliffe Vale;;-32.646102;28.206805
708;South Africa;North West;Sutelong;;-25.15;27.966667
709;South Africa;KwaZulu Natal;Sutherland;;-30.554006;29.791365
710;South Africa;Northern Cape;Sutherland;;-32.394349;20.661067
711;South Africa;Northern Cape;Sutton;;-27.431929;22.823837
712;South Africa;Eastern Cape;Suurberg;;-31.180327;25.626646
713;South Africa;Western Cape;Suurbraak;;-34.004425;20.654317
714;South Africa;Free State;Suurbult;;-29.506096;27.09849
715;South Africa;Eastern Cape;Suurfontein;;-31.33085;26.15221
716;South Africa;North West;Suurman;;-25.38097;28.225715
717;South Africa;Northern Cape;Swaardraai;;-28.65;20.466667
718;South Africa;Eastern Cape;Swaelkrans;;-31.359289;26.390287
719;South Africa;Eastern Cape;Swakfontein;;-31.136923;26.962158
720;South Africa;Limpopo;Swale;;-24.461916;30.012904
721;South Africa;Eastern Cape;Swanepoelskraal;;-33.44058;25.689706
722;South Africa;Limpopo;Swanepoelsrust;;-24.566667;27.983333
723;South Africa;Eastern Cape;Swane Ridge;;-30.945338;29.656995
724;South Africa;Eastern Cape;Swane;;-30.946627;29.649401
725;South Africa;Eastern Cape;Swani Ridge;;-30.945338;29.656995
726;South Africa;Northern Cape;Swartbaadjie;;-30.87745;22.161067
727;South Africa;Northern Cape;Swartbaken;;-29.53267;21.351172
728;South Africa;KwaZulu Natal;Swartberg;;-30.238399;29.340833
729;South Africa;North West;Swartbooistad;;-25.26827;28.169312
730;South Africa;North West;Swartbooistat;;-25.26827;28.169312
731;South Africa;North West;Swartboom;;-25.039972;28.132196
732;South Africa;North West;Swartdamstad;;-25.32379;28.048509
733;South Africa;North West;Swartdamstat;;-25.32379;28.048509
734;South Africa;Mpumalanga;Swartfontein Arbeidskolonie;;-25.206854;30.944757
735;South Africa;Free State;Swartfontein;;-27.933333;28.6
736;South Africa;Eastern Cape;Swartfontein;;-30.711733;26.94642
737;South Africa;Mpumalanga;Swartfontein;;-25.206854;30.944757
738;South Africa;KwaZulu Natal;Swarthoogte;;-28.483333;31.2
739;South Africa;Free State;Swartjan;;-29.153354;26.107743
740;South Africa;Limpopo;Swartklip;;-24.936025;27.158381
741;South Africa;Western Cape;Swartklip;;-34.083333;18.683333
742;South Africa;North West;Swartkopfonteinhek;;-24.866667;25.966667
743;South Africa;Limpopo;Swartkoplokasie;;-24.7;30.166667
744;South Africa;Free State;Swartkoppies;;-29.950314;25.49756
745;South Africa;Northern Cape;Swartkoppies;;-28.45;22.966667
746;South Africa;Northern Cape;Swartkopspan;;-29.3188;22.141085
747;South Africa;Eastern Cape;Swartkops;;-33.864057;25.601104
748;South Africa;Eastern Cape;Swartkop;;-30.861537;26.898077
749;South Africa;Northern Cape;Swartkop;;-29.95;17.216667
750;South Africa;Free State;Swartlaagte;;-30.047745;26.520629
751;South Africa;Eastern Cape;Swartlaagte;;-30.44431;27.482136
752;South Africa;Northern Cape;Swartmodder;;-28.027398;20.552269
753;South Africa;Northern Cape;Swartoup;;-28.961388;19.456754
754;South Africa;North West;Swartruggens;;-25.650215;26.688564
755;South Africa;Gauteng;Swartspruit;;-25.72071;28.012323
756;South Africa;Eastern Cape;Swartwater;;-31.674641;26.836143
757;South Africa;Limpopo;Swartwater;;-22.855711;28.201775
758;South Africa;Western Cape;Swartwater;;-33.282574;18.263552
759;South Africa;Eastern Cape;Swazini;;-30.65546;28.842828
760;South Africa;Free State;Sweetfontein;;-30.008388;26.830074
761;South Africa;North West;Sweethome;;-27.428527;23.508592
762;South Africa;Eastern Cape;Sweetlayini;;-31.75;27.716667
763;South Africa;Free State;Sweet Valley;;-27.566658;29.694528
764;South Africa;Western Cape;Sweet Valley;;-34.048098;18.442507
765;South Africa;KwaZulu Natal;Sweetwaters;;-29.016667;29.683333
766;South Africa;KwaZulu Natal;Sweet Waters;;-29.596007;30.266898
767;South Africa;KwaZulu Natal;Swelela;;-27.75;32.283333
768;South Africa;Western Cape;Swellendam;;-34.022624;20.441706
769;South Africa;Free State;Swesterpan;;-29.0854;25.686262
770;South Africa;Free State;Swinburne;;-28.34866;29.277582
771;South Africa;Eastern Cape;Swinburne;;-33.915148;25.397057
772;South Africa;Western Cape;Swiss Farm;;-33.936598;19.110893
773;South Africa;Gauteng;Sybrandskraal;;-25.462606;28.638733
774;South Africa;KwaZulu Natal;Sydenham;;-29.829938;30.991565
775;South Africa;Eastern Cape;Sydenham;;-33.925263;25.60223
776;South Africa;Northern Cape;Sydney on Vaal;;-28.444544;24.315832
777;South Africa;North West;Sydney;;-26.215543;23.115987
778;South Africa;North West;Syferkuil;;-26.516667;26.416667
779;South Africa;Eastern Cape;Synmanskraal;;-31.352688;26.802604
780;South Africa;Northern Cape;Syoney-on-Vaal;;-28.444544;24.315832
781;South Africa;North West;Taaibosbult;;-26.878164;27.047408
782;South Africa;KwaZulu Natal;Tabamhlope;;-29.1;29.6
783;South Africa;Free State;Tabane;;-29.252703;26.789695
784;South Africa;Eastern Cape;Tabankulu;;-30.958745;29.302209
785;South Africa;Eastern Cape;Tabase Nek;;-31.560088;28.588976
786;South Africa;Eastern Cape;Tabase;;-30.524965;28.327818
787;South Africa;Eastern Cape;Tabas;;-30.524965;28.327818
788;South Africa;Eastern Cape;Tabazini;;-31.746873;27.787516
789;South Africa;Western Cape;Table View;;-33.819128;18.488102
790;South Africa;Eastern Cape;Tafalehashe;;-32.023517;28.947452
791;South Africa;Eastern Cape;Tafalehashi;;-32.023517;28.947452
792;South Africa;KwaZulu Natal;Tafamasi;;-29.53553;30.856546
793;South Africa;Eastern Cape;Tafani;;-31.76572;28.687469
794;South Africa;Eastern Cape;Tafelberg;;-30.729141;26.860338
795;South Africa;Eastern Cape;Tafelehashe;;-32.023517;28.947452
796;South Africa;Eastern Cape;Tafelkop;;-31.515953;25.738998
797;South Africa;Limpopo;Tafelkop;;-25.051572;29.502192
798;South Africa;Eastern Cape;Tafeni;;-31.532469;27.452416
799;South Africa;Free State;Tafu;;-28.833333;28.633333
800;South Africa;Western Cape;Tahiti;;-31.537585;18.243976
801;South Africa;Limpopo;Takalani;;-22.866667;30.583333
802;South Africa;North West;Takaneng;;-27.587104;24.614407
803;South Africa;Eastern Cape;Takazidrif;;-32.530058;28.431594
804;South Africa;Eastern Cape;Takazi;;-32.530058;28.431594
805;South Africa;Western Cape;Takkap;;-33.979861;19.786256
806;South Africa;Limpopo;Talane;;-25.019835;29.794119
807;South Africa;Eastern Cape;Tala;;-31.835974;28.970135
808;South Africa;KwaZulu Natal;Talavera;;-29.278643;30.345307
809;South Africa;Eastern Cape;Talemofu;;-32.0157;29.015345
810;South Africa;Eastern Cape;Taleni School;;-32.133333;28.416667
811;South Africa;Eastern Cape;Taleni Skool;;-32.133333;28.416667
812;South Africa;KwaZulu Natal;Taleni;;-30.69402;29.686767
813;South Africa;Eastern Cape;Taleni;;-30.999933;29.198141
814;South Africa;Mpumalanga;Talfelkop;;-26.479486;29.767739
815;South Africa;Free State;Talla;;-28.981873;26.909635
816;South Africa;Free State;Talsen;;-28.012446;25.355524
817;South Africa;Eastern Cape;Tamacha;;-32.962772;27.212097
818;South Africa;Eastern Cape;Tamaha;;-32.962772;27.212097
819;South Africa;Eastern Cape;Tamara;;-32.962772;27.212097
820;South Africa;North West;Tamasikwa;;-27.612965;24.609708
821;South Africa;Eastern Cape;Tambekeni;;-31.67344;28.359396
822;South Africa;Mpumalanga;Tambisha;;-25.216667;29.033333
823;South Africa;Western Cape;Tamboerskloof;;-33.929411;18.404388
824;South Africa;KwaZulu Natal;Tandanani;;-28.554815;31.055965
825;South Africa;Free State;Tandem;;-29.243877;27.527112
826;South Africa;Eastern Cape;Tanga;;-31.265656;29.940194
827;South Africa;Eastern Cape;Tapoleng;;-30.539567;27.360188
828;South Africa;Eastern Cape;Tarkabrug;;-32.320233;25.743531
829;South Africa;Northern Cape;Tarka se Kop;;-29.625471;21.679036
830;South Africa;Eastern Cape;Tarkastad;;-32.008927;26.259346
831;South Africa;Eastern Cape;Tarleni;;-32.183333;28.416667
832;South Africa;Gauteng;Tarlton;;-26.083333;27.65
833;South Africa;Mpumalanga;Tasakani;;-24.616304;31.044327
834;South Africa;Eastern Cape;Taswana;;-30.819741;29.933507
835;South Africa;Eastern Cape;Tatsi;;-31.983333;27.533333
836;South Africa;North West;Taungs;;-27.531126;24.786587
837;South Africa;Limpopo;Taung;;-23.711237;29.067664
838;South Africa;North West;Taung;;-27.531126;24.786587
839;South Africa;Eastern Cape;Taylerville;4740;-30.167465;29.062427
840;South Africa;KwaZulu Natal;Taylors;;-29.677155;30.172857
841;South Africa;Eastern Cape;Taynult;;-31.488395;27.926858
842;South Africa;North West;Tay;;-26.485846;22.979763
843;South Africa;Eastern Cape;Teba;;-32.73722;26.614197
844;South Africa;Northern Cape;Teebus;;-31.366667;24.683333
845;South Africa;KwaZulu Natal;Tefgte;;-30.216667;29.216667
846;South Africa;Eastern Cape;Tekoe Skool;;-32.376642;28.303164
847;South Africa;North West;Tekort;;-26.683575;23.096237
848;South Africa;Eastern Cape;Teko Springs;;-32.376642;28.303164
849;South Africa;Eastern Cape;Tekweni;;-31.658327;29.393259
850;South Africa;Eastern Cape;Tekwini;;-31.658327;29.393259
851;South Africa;Eastern Cape;Telegap;;-31.9;28.483333
852;South Africa;KwaZulu Natal;Telgte;;-30.216667;29.216667
853;South Africa;Eastern Cape;Telle Falls;;-30.62815;27.829322
854;South Africa;North West;Temba;;-25.381708;28.264376
855;South Africa;Eastern Cape;Tembeni;;-31.05;29.583333
856;South Africa;Gauteng;Tembisa;;-25.996363;28.226802
857;South Africa;Eastern Cape;Tembugazi;;-31.366948;29.241913
858;South Africa;Eastern Cape;Tembukazi;;-31.366948;29.241913
859;South Africa;Free State;Tempe;;-29.092889;26.187314
860;South Africa;Eastern Cape;Templehorn;;-30.788245;28.256317
861;South Africa;Eastern Cape;TemplerHorne;;-30.788245;28.256317
862;South Africa;Eastern Cape;Templerhorn;;-30.788245;28.256317
863;South Africa;Eastern Cape;Templeton;;-31.336519;26.377495
864;South Africa;Eastern Cape;Temple Vale;;-31.7;25.9
865;South Africa;Gauteng;Ten Acre;;-26.254908;27.616228
866;South Africa;North West;Tenby;;-26.866998;23.410937
867;South Africa;Eastern Cape;Teneriffe;;-30.717031;26.666794
868;South Africa;Eastern Cape;Tenza;;-32.02114;28.222868
869;South Africa;Eastern Cape;Teresa;;-30.433333;27.466667
870;South Africa;Eastern Cape;Tereseng;;-30.233333;28.583333
871;South Africa;Western Cape;Tergniet;;-34.068374;22.194596
872;South Africa;Limpopo;Terveen;;-22.8842;28.980421
873;South Africa;Western Cape;Teslaarsdal;;-34.333333;19.533333
874;South Africa;Gauteng;Tetema;;-25.65;28.85
875;South Africa;Eastern Cape;Teviot;;-31.683333;25.616667
876;South Africa;Free State;Tevrede;;-29.080419;26.60143
877;South Africa;KwaZulu Natal;Teza;;-28.516667;32.15
878;South Africa;Eastern Cape;Thaba Chicha;;-30.363901;28.392773
879;South Africa;Eastern Cape;Thaba Chitja;;-30.363901;28.392773
880;South Africa;Limpopo;Thabakgone;;-23.913776;29.808695
881;South Africa;Gauteng;Thabakhubedu;;-25.341457;29.251988
882;South Africa;Eastern Cape;Thabakhubelu;;-30.654263;28.275364
883;South Africa;Eastern Cape;Thaba Koloi;;-30.582574;27.090148
884;South Africa;Limpopo;Thabaleboto;;-25.036187;29.718217
885;South Africa;Limpopo;Thabamoopo;;-24.283333;29.533333
886;South Africa;Limpopo;Thabanapitsi;;-24.616667;29.5
887;South Africa;Eastern Cape;Thabana;;-30.379255;28.34357
888;South Africa;Mpumalanga;Thabana;;-25.079611;29.059902
889;South Africa;Free State;Thaba Nchu;;-29.209325;26.838982
890;South Africa;Limpopo;Thabaneng;;-24.456087;29.49049
891;South Africa;Limpopo;Thabantsho;;-24.383333;30.05
892;South Africa;Free State;Thabantsjoe;;-29.209325;26.838982
893;South Africa;North West;Thabantswana;;-25.683333;27.633333
894;South Africa;Free State;Thaba Patchoa;;-29.314221;27.120024
895;South Africa;Free State;Thaba Phashawa;;-29.314221;27.120024
896;South Africa;Free State;Thaba Phatshawa;;-29.314221;27.120024
897;South Africa;Free State;Thaba Phatshwa;;-29.314221;27.120024
898;South Africa;Eastern Cape;Thabaputsoa;;-30.691645;28.444312
899;South Africa;North West;Thaba-Sione;;-26.354147;25.422689
900;South Africa;Limpopo;Thabazimbi;;-24.59165;27.411551
901;South Africa;Eastern Cape;Thabeng;;-30.515314;28.638564
902;South Africa;North West;Thabeng;;-25.136498;27.461493
903;South Africa;Limpopo;Thabina;;-23.966667;30.283333
904;South Africa;Free State;Thabong;;-27.958711;26.829902
905;South Africa;Eastern Cape;Thafa-Lofefe;;-32.430148;28.47425
906;South Africa;Limpopo;Thalahane;;-23.128441;28.970891
907;South Africa;Free State;Thalassa;;-29.415148;26.73513
908;South Africa;Eastern Cape;Thala;;-32.484042;28.168492
909;South Africa;Eastern Cape;Thaleni School;;-32.133333;28.416667
910;South Africa;Eastern Cape;Thaleni;;-32.183333;28.416667
911;South Africa;Limpopo;Thamagane;;-24.388135;29.528053
912;South Africa;Mpumalanga;Thambokhulu;;-25.948136;31.899901
913;South Africa;North West;Thamoanche;;-27.329608;23.440012
914;South Africa;North West;Thamoyantshe;;-27.329608;23.440012
915;South Africa;KwaZulu Natal;Thandisizwe;;-29.533333;30.433333
916;South Africa;Eastern Cape;Thaweni;;-30.433333;28.683333
917;South Africa;Mpumalanga;Theareng;;-25.233266;29.117448
918;South Africa;Northern Cape;The Bend Store;;-28.6;24.566667
919;South Africa;Free State;The Bend;;-29.449156;26.050695
920;South Africa;Northern Cape;The Bend;;-28.6;24.566667
921;South Africa;Western Cape;The Boulders;;-34.197946;18.449242
922;South Africa;Eastern Cape;Thebus Waters;;-31.384937;25.680203
923;South Africa;Limpopo;The Carousel Entertainment Centre;;-25.305278;28.305556
924;South Africa;Limpopo;The Carousel;;-25.305278;28.305556
925;South Africa;KwaZulu Natal;The Cedars;;-30.225768;30.646111
926;South Africa;Free State;The Chase;;-29.061355;25.723196
927;South Africa;Free State;The Cliff;;-29.490536;26.763655
928;South Africa;Western Cape;The Crags;;-33.956462;23.474409
929;South Africa;Eastern Cape;The Downs;;-31.516667;26.7
930;South Africa;Western Cape;Theerivier;;-32.808826;19.083183
931;South Africa;Eastern Cape;The Glen;;-31.104439;25.801874
932;South Africa;KwaZulu Natal;The Grove;;-29.15;30.1
933;South Africa;Eastern Cape;The Gums;;-30.333333;28.75
934;South Africa;Free State;The Hall;;-29.487697;26.052142
935;South Africa;Free State;The Haven;;-29.133845;27.531037
936;South Africa;Eastern Cape;The Haven;;-32.238438;28.916258
937;South Africa;Gauteng;The Highlands;;-25.798056;28.290833
938;South Africa;KwaZulu Natal;The Hill;;-29.827099;30.306303
939;South Africa;Eastern Cape;The Home Kroon;;-31.343817;28.183126
940;South Africa;Western Cape;The Homestead;;-34;18.733333
941;South Africa;Eastern Cape;The Home;;-31.343817;28.183126
942;South Africa;Western Cape;The Island;;-34.053178;22.239383
943;South Africa;Free State;The Junction;;-30.657359;26.766641
944;South Africa;North West;Thekane;;-25.655275;27.367266
945;South Africa;Eastern Cape;The Kowie;;-33.590572;26.891037
946;South Africa;North West;Thekwane;;-25.655275;27.367266
947;South Africa;North West;Thelesho;;-25.983333;25.5
948;South Africa;KwaZulu Natal;Thelizolo;;-26.85;32.8
949;South Africa;KwaZulu Natal;Thembalihle;;-27.840316;29.997803
950;South Africa;Eastern Cape;Thembekeni;;-30.590661;28.461765
951;South Africa;KwaZulu Natal;Thembeni;;-28.290855;31.245565
952;South Africa;Eastern Cape;Thembeni;;-30.550158;28.415026
953;South Africa;Eastern Cape;The Meadows;;-31.533333;25.566667
954;South Africa;Eastern Cape;The Mill;;-31.783333;27.033333
955;South Africa;KwaZulu Natal;Thendele;;-29.375618;29.686958
956;South Africa;Limpopo;Thengwe;;-22.717479;30.552905
957;South Africa;Free State;Theoville;;-26.761496;27.753812
958;South Africa;North West;Thepe;;-26.317762;25.222112
959;South Africa;KwaZulu Natal;The Point;;-29.864712;31.041259
960;South Africa;Free State;The Poplars;;-29.50146;26.814007
961;South Africa;KwaZulu Natal;The Ranch;;-28.833333;30.883333
962;South Africa;KwaZulu Natal;The Rest;;-29.966667;30.383333
963;South Africa;Eastern Cape;The Retreat;;-31.916667;26.966667
964;South Africa;KwaZulu Natal;The Ridge;;-29.49458;29.578658
965;South Africa;KwaZulu Natal;The Rockeries;;-29.67807;29.999394
966;South Africa;Mpumalanga;The Rocks;;-26;28.866667
967;South Africa;Northern Cape;Theronsville;;-29.128299;19.394915
968;South Africa;Mpumalanga;The Sands;;-25.22765;31.078687
969;South Africa;Eastern Cape;The Springs;;-33.70207;25.436584
970;South Africa;Limpopo;Theunispan;;-23.705301;27.267883
971;South Africa;Free State;Theunissen;;-28.410979;26.701068
972;South Africa;Mpumalanga;Theuns;;-26.677799;29.177228
973;South Africa;Northern Cape;The Van Wyks Vlei Settlement Plan;;-30.3;21.833333
974;South Africa;KwaZulu Natal;The Village;;-28.790945;32.097564
975;South Africa;Gauteng;The Village;;-26.400095;27.384816
976;South Africa;Eastern Cape;The Vlei;;-31.172313;29.687645
977;South Africa;Free State;The Willows;;-29.253928;26.066131
978;South Africa;Eastern Cape;The Willows;;-31.464612;27.780082
979;South Africa;North West;Thlabane;;-25.6404;27.216476
980;South Africa;North West;Thladistad;;-25.199382;28.04463
981;South Africa;Limpopo;Thohoyandou;;-22.945642;30.484972
982;South Africa;Eastern Cape;Thokwana;;-30.657728;28.335129
983;South Africa;KwaZulu Natal;Tholeni;;-28.420657;30.222181
984;South Africa;Limpopo;Tholo-Mosilone;;-24.9;29.866667
985;South Africa;Limpopo;Tholongwe;;-23.965482;29.692782
986;South Africa;North West;Thomasdale;;-27.110433;23.718916
987;South Africa;Eastern Cape;Thomas River;5311;-32.451864;27.25292
988;South Africa;Eastern Cape;Thomasrivier;;-32.451864;27.25292
989;South Africa;KwaZulu Natal;Thombothi;;-27.185005;32.213609
990;South Africa;Eastern Cape;Thombo;;-31.625296;29.391478
991;South Africa;North West;Thomeng;;-27.694875;24.60376
992;South Africa;Limpopo;Thomo;;-23.243008;30.794225
993;South Africa;Eastern Cape;Thomson;;-32.016667;28.55
994;South Africa;KwaZulu Natal;Thonsini;;-29.968707;29.500883
995;South Africa;Free State;Thorley;;-29.518994;26.788498
996;South Africa;KwaZulu Natal;Thorndale;;-30.698642;30.154972
997;South Africa;Eastern Cape;Thorndale;;-32.715354;26.862219
998;South Africa;Gauteng;Thorndale;;-25.933333;27.516667
999;South Africa;Limpopo;Thorndale;;-23.55;29.666667
1000;South Africa;Eastern Cape;Thorn Drift;;-32.333333;28.183333
1001;South Africa;Eastern Cape;Thorneycroft;;-31.930809;26.580245
1002;South Africa;KwaZulu Natal;Thornham;;-30.511373;29.5278
1003;South Africa;Eastern Cape;Thornham;;-33.975357;23.956095
1004;South Africa;Eastern Cape;Thornlands;;-31.783516;27.095274
1005;South Africa;Eastern Cape;Thorn Ridge;;-32.916667;28.016667
1006;South Africa;Western Cape;Thornton;;-33.922449;18.536199
1007;South Africa;KwaZulu Natal;Thornville Junction;;-29.735731;30.384707
1008;South Africa;KwaZulu Natal;Thornville;;-29.683333;30.483333
1009;South Africa;Eastern Cape;Thornville;;-31.976558;28.177539
1010;South Africa;KwaZulu Natal;Thornwood;;-29.856694;30.803952
1011;South Africa;Eastern Cape;Thornwood;;-31.940481;25.501811
1012;South Africa;North West;Thota va tau;;-28.066855;24.544372
1013;South Africa;North West;Thotayamoku;;-27.269264;23.704964
1014;South Africa;Western Cape;Three Anchor Bay;;-33.909067;18.395743
1015;South Africa;Gauteng;Three Rivers;;-26.654056;27.976208
1016;South Africa;Free State;Three Sisters;;-29.316667;26.9
1017;South Africa;KwaZulu Natal;Thrings Post;;-29.210547;31.151386
1018;South Africa;Free State;Thubisi;;-29.162554;26.757985
1019;South Africa;Limpopo;Thulamahashi;;-24.724589;31.199389
1020;South Africa;Limpopo;Thulani;;-24.638471;31.412371
1021;South Africa;North West;Thultwane;;-26.327549;25.160114
1022;South Africa;North West;Thulwe;;-25.22487;28.21306
1023;South Africa;Limpopo;Thune;;-23.870047;29.836025
1024;South Africa;Limpopo;Thupi;;-24.033333;28.983333
1025;South Africa;KwaZulu Natal;Thurlough;;-29.941713;30.402394
1026;South Africa;Limpopo;Thusano;;-22.916667;29.016667
1027;South Africa;North West;Thusong;;-26.199413;25.601657
1028;South Africa;Limpopo;Thutlane;;-23.786555;28.654762
1029;South Africa;Eastern Cape;Thwalikhulu;;-31.967646;28.976092
1030;South Africa;Eastern Cape;Thwa;;-30.819116;28.900155
1031;South Africa;Limpopo;Tibanefontein;;-23.641568;29.012791
1032;South Africa;Limpopo;Tibane;;-23.641568;29.012791
1033;South Africa;Limpopo;Ticvo Tavo;;-23.65;28.9
1034;South Africa;Limpopo;Tiekiedraai;;-24.449998;29.741945
1035;South Africa;Mpumalanga;Tienfontein;;-26.153721;29.784695
1036;South Africa;Free State;Tieniesrand;;-29.620844;26.377851
1037;South Africa;Free State;Tierhoek;;-30.485688;26.978643
1038;South Africa;Eastern Cape;Tierhoek;;-30.916667;26.65
1039;South Africa;Gauteng;Tierpoort;;-25.870931;28.438568
1040;South Africa;Northern Cape;Tierputs;;-30.941575;21.837202
1041;South Africa;North West;Tigane;;-26.739402;26.421258
1042;South Africa;Eastern Cape;Tigerhoek;;-30.319598;29.629771
1043;South Africa;Eastern Cape;Tiger Ridge;;-31.304388;26.878265
1044;South Africa;Free State;Tiger River;;-29.115459;26.789454
1045;South Africa;Eastern Cape;Tilwortb;;-30.96772;26.306109
1046;South Africa;Eastern Cape;Timane;;-32.033333;28.316667
1047;South Africa;Eastern Cape;Timani;;-32.027836;28.271588
1048;South Africa;Eastern Cape;Tina Bridge;;-31.073763;28.892427
1049;South Africa;Eastern Cape;Tina Falls;;-31.217872;29.026406
1050;South Africa;Eastern Cape;Tinana;;-30.539647;28.438608
1051;South Africa;Eastern Cape;Tina;;-30.866667;28.75
1052;South Africa;Eastern Cape;Tinislokasie;;-32.766667;26.633333
1053;South Africa;KwaZulu Natal;Tinley Manor Estate;;-29.446062;31.285948
1054;South Africa;KwaZulu Natal;Tinley Manor;;-29.446062;31.285948
1055;South Africa;Limpopo;Tinmyne;;-24.035718;28.774971
1056;South Africa;Eastern Cape;Tintwa;;-31.127517;28.755765
1057;South Africa;North West;Tiokweng;;-25.5;26.633333
1058;South Africa;Northern Cape;Tipperary;;-27.866667;23.85
1059;South Africa;Northern Cape;Titiespan;;-29.440317;21.837983
1060;South Africa;North West;Tladistat;;-25.199382;28.04463
1061;South Africa;North West;Tlakaming;;-26.468626;24.340061
1062;South Africa;North West;Tlapeng;;-25.744131;25.424849
1063;South Africa;North West;Tlaping;;-26.836441;23.928494
1064;South Africa;North West;Tlaseng;;-25.474408;27.35087
1065;South Africa;North West;Tlhakajeng;;-26.303335;25.336976
1066;South Africa;North West;Tlhakgameng;;-26.468626;24.340061
1067;South Africa;North West;Tlhakmeng;;-26.468626;24.340061
1068;South Africa;North West;Tlhatlhaganyane;;-25.222119;26.944003
1069;South Africa;Limpopo;Tlhavekisa;;-24.623485;31.37635
1070;South Africa;Limpopo;Tlhogoyanku;;-23.571634;28.842766
1071;South Africa;Limpopo;Tlhonasedimong;;-22.896629;28.783128
1072;South Africa;Eastern Cape;Toboni Skool;;-32.116667;28.05
1073;South Africa;Eastern Cape;Tobotshana;;-32.354975;28.162266
1074;South Africa;Gauteng;Toekomsrus;;-26.206201;27.711381
1075;South Africa;Eastern Cape;Toekoms;;-30.992171;26.205005
1076;South Africa;Northern Cape;Toekoms;;-30.11162;21.933647
1077;South Africa;Limpopo;Toekoms;;-23.100873;29.888373
1078;South Africa;Limpopo;Toeppie Bus Halt;;-24.033333;28.983333
1079;South Africa;Western Cape;Tokai;;-34.060458;18.437825
1080;South Africa;Limpopo;Tokio;;-22.483333;28.916667
1081;South Africa;North West;Tokolwane;;-27.230777;23.770591
1082;South Africa;Gauteng;Tokoza;;-26.366667;28.066667
1083;South Africa;Eastern Cape;Tokwana;;-30.657728;28.335129
1084;South Africa;Eastern Cape;Toleni;;-30.951927;28.894872
1085;South Africa;Eastern Cape;Tolfelberg;;-31.376968;25.648721
1086;South Africa;Eastern Cape;Tolkop;;-30.855227;25.850879
1087;South Africa;Limpopo;Tolwe;;-23.002218;28.564206
1088;South Africa;Eastern Cape;Tombo;;-31.625296;29.391478
1089;South Africa;Limpopo;Tom Burke;;-23.069888;27.99721
1090;South Africa;Limpopo;Tom;;-23.183333;30.583333
1091;South Africa;Limpopo;Tonash;;-22.783135;28.746785
1092;South Africa;KwaZulu Natal;Tongaat;;-29.572149;31.116818
1093;South Africa;KwaZulu Natal;Tongaat Village;;-29.572149;31.116818
1094;South Africa;Mpumalanga;Tongwe;;-25.683333;31.766667
1095;South Africa;KwaZulu Natal;Tonjeni;;-30.645474;30.126367
1096;South Africa;Mpumalanga;Tonteldoos;;-25.319325;29.977191
1097;South Africa;Eastern Cape;Tonti;;-30.865894;29.439207
1098;South Africa;Eastern Cape;Toorkop;;-31.866287;26.324527
1099;South Africa;Limpopo;Tooseng;;-24.446883;29.561456
1100;South Africa;Eastern Cape;Topiya;;-30.921818;29.571547
1101;South Africa;Eastern Cape;Tora;;-31.905774;28.142731
1102;South Africa;Free State;Torbrek;;-29.524301;26.376743
1103;South Africa;Mpumalanga;Torburnlea;;-25.725917;30.347985
1104;South Africa;North West;Tornado;;-25.716667;27.65
1105;South Africa;Limpopo;Toroponje Ntsho;;-24.112585;29.57713
1106;South Africa;North West;Torrington;;-25.35;26.183333
1107;South Africa;North West;Tosca;;-25.879014;23.959468
1108;South Africa;Limpopo;Tours;;-24.1;30.283333
1109;South Africa;Western Cape;Touws River;;-33.338263;20.030925
1110;South Africa;Western Cape;Touwsrivier;;-33.338263;20.030925
1111;South Africa;Eastern Cape;Towerhill;;-32.796384;28.023282
1112;South Africa;Free State;Traacha;;-30.286331;26.545631
1113;South Africa;North West;Tra Blanca;;-27.194512;23.728771
1114;South Africa;KwaZulu Natal;Trado;;-27.95;30.7
1115;South Africa;KwaZulu Natal;Trafalgar;;-30.956615;30.289882
1116;South Africa;Limpopo;Trascate;;-24.792578;29.166132
1117;South Africa;North West;Trassievlakte;;-26.839352;23.550021
1118;South Africa;KwaZulu Natal;Treasure Beach;;-29.94662;30.994672
1119;South Africa;Eastern Cape;Trennerys Hotel;;-32.634733;28.426701
1120;South Africa;Eastern Cape;Trennerys;;-32.634733;28.426701
1121;South Africa;Gauteng;Trevallyn;;-26.019605;27.951687
1122;South Africa;Limpopo;Treves;;-23.489306;28.796805
1123;South Africa;KwaZulu Natal;Trewirgie;;-29.762617;30.199625
1124;South Africa;Mpumalanga;Trichard;;-26.490832;29.234582
1125;South Africa;Limpopo;Trichardtsdal;;-24.16953;30.400634
1126;South Africa;Mpumalanga;Trichardt;;-26.490832;29.234582
1127;South Africa;Gauteng;Triomf;;-26.17465;27.974209
1128;South Africa;Eastern Cape;Triple Streams;;-30.972206;28.566464
1129;South Africa;Free State;Trompsburg;;-30.033626;25.780406
1130;South Africa;North West;Trom;;-26.623863;23.393156
1131;South Africa;Northern Cape;Trooilapspan;;-28.633333;21.516667
1132;South Africa;Limpopo;Troosmy;;-23.714951;29.896614
1133;South Africa;Free State;Truitjesfontein;;-30.5;26.266667
1134;South Africa;Eastern Cape;Trumpeters drift;;-33.23466;26.956906
1135;South Africa;Eastern Cape;Trumpeters;;-33.23466;26.956906
1136;South Africa;Eastern Cape;Trust;;-31.456252;27.603529
1137;South Africa;Eastern Cape;Try Again;;-32.674899;28.033722
1138;South Africa;North West;Tsaelengwe;;-27.383333;23.733333
1139;South Africa;North West;Tsailingwe;;-27.383333;23.733333
1140;South Africa;Eastern Cape;Tsakana;;-31.868304;27.45522
1141;South Africa;Gauteng;Tsakane;;-26.35626;28.382083
1142;South Africa;Eastern Cape;Tsalaaba;;-31.574804;28.031456
1143;South Africa;Eastern Cape;Tsalaba;;-31.574804;28.031456
1144;South Africa;North West;Tsamarose;;-27.280261;23.900234
1145;South Africa;North West;Tsamaros;;-27.280261;23.900234
1146;South Africa;Limpopo;Tsao;;-24.5;30.15
1147;South Africa;Eastern Cape;Tsatsana;;-30.653336;28.208813
1148;South Africa;Eastern Cape;Tsawana;;-30.819741;29.933507
1149;South Africa;North West;Tsechou;;-26.131339;23.834022
1150;South Africa;North West;Tsechu;;-26.131339;23.834022
1151;South Africa;North West;Tselaengwe;;-27.383333;23.733333
1152;South Africa;Eastern Cape;Tsembeyi;;-31.589052;27.022604
1153;South Africa;Limpopo;Tsende;;-23.529019;31.403914
1154;South Africa;Eastern Cape;Tsengiwe;;-31.573202;27.659202
1155;South Africa;North West;Tseng;;-25.983333;23.45
1156;South Africa;North West;Tsenin;;-27.089892;23.08586
1157;South Africa;North West;Tsts;;-26.183333;26.8
1158;South Africa;Eastern Cape;Tshabo;;-32.933333;27.5
1159;South Africa;Limpopo;Tshabya;;-22.8;30.416667
1160;South Africa;Mpumalanga;Tshaka;;-25.983333;30.8
1161;South Africa;Limpopo;Tshakhuma;;-23.05;30.3
1162;South Africa;Limpopo;Tshakoma;;-23.05;30.3
1163;South Africa;Limpopo;Tshamahansi;;-24.082279;28.981055
1164;South Africa;Eastern Cape;Tshamazimba;;-31.557215;27.152995
1165;South Africa;Limpopo;Tshamulongwe;;-22.738892;30.40756
1166;South Africa;Limpopo;Tshandama;;-22.717404;30.610177
1167;South Africa;Eastern Cape;Tshandtshe;;-31.343404;29.512952
1168;South Africa;North West;Tshaneng;;-25.41136;27.123867
1169;South Africa;Eastern Cape;Tshani;;-31.931291;29.206113
1170;South Africa;Limpopo;Tshate;;-24.510298;30.019664
1171;South Africa;Eastern Cape;Tshatshu;;-31.866828;27.200611
1172;South Africa;Limpopo;Tshaula Mission;;-22.800717;30.747686
1173;South Africa;Limpopo;Tshaula;;-22.800717;30.747686
1174;South Africa;Limpopo;Tshaulu;;-22.800717;30.747686
1175;South Africa;Eastern Cape;Tshazibane;;-32.079493;28.212798
1176;South Africa;Limpopo;Tshebeng;;-23.813625;29.272607
1177;South Africa;Limpopo;Tshenzhelani;;-22.389162;30.823482
1178;South Africa;North West;Tshetsho;;-26.131339;23.834022
1179;South Africa;North West;Tshetshu;;-26.131339;23.834022
1180;South Africa;North West;Tshetshwana;;-26.173162;23.827053
1181;South Africa;Limpopo;Tshianzwani;;-22.902177;30.685182
1182;South Africa;Limpopo;Tshiavha;;-22.830508;30.306502
1183;South Africa;North West;Tshidilamolomo;;-25.831372;24.685851
1184;South Africa;Limpopo;Tshifudi;;-22.817254;30.699213
1185;South Africa;Limpopo;Tshiheni;;-22.879461;30.272239
1186;South Africa;Mpumalanga;Tshikannosi;;-24.987621;28.936111
1187;South Africa;Limpopo;Tshikhwani;;-23.135345;29.793074
1188;South Africa;Eastern Cape;Tshikitsha;;-30.917997;28.541495
1189;South Africa;Limpopo;Tshikonelo;;-22.880441;30.72867
1190;South Africa;Limpopo;Tshikundu;;-22.902679;30.726578
1191;South Africa;Limpopo;Tshikuyu;;-22.416112;30.947274
1192;South Africa;Limpopo;Tshikwarani;;-23.061896;29.628024
1193;South Africa;Limpopo;Tshilapfene;;-22.854971;30.429323
1194;South Africa;Limpopo;Tshimbupfe;;-23.166667;30.483333
1195;South Africa;Limpopo;Tshino;;-23.113503;30.406441
1196;South Africa;Limpopo;Tshiozwi;;-23.084941;29.791731
1197;South Africa;Limpopo;Tshipise;;-22.607041;30.172015
1198;South Africa;Limpopo;Tshirolwe;;-22.904897;30.007335
1199;South Africa;Eastern Cape;Tshisane;;-30.60814;28.729655
1200;South Africa;Limpopo;Tshishiru;;-22.7;30.266667
1201;South Africa;Limpopo;Tshiswenda;;-22.922004;30.0714
1202;South Africa;Limpopo;Tshitavha;;-22.960545;30.196316
1203;South Africa;Limpopo;Tshithotholwe;;-22.825752;30.631992
1204;South Africa;Limpopo;Tshituni;;-22.876967;30.059037
1205;South Africa;Limpopo;Tshitwi;;-22.789672;30.163989
1206;South Africa;Limpopo;Tshivangani;;-23.182858;30.436517
1207;South Africa;Limpopo;Tshivumbe;;-22.976353;30.394259
1208;South Africa;Eastern Cape;Tshoana;;-30.4;28.35
1209;South Africa;Eastern Cape;Tsholora;;-32.116667;28.766667
1210;South Africa;KwaZulu Natal;Tshongwe;;-27.433333;32.366667
1211;South Africa;North West;Tshoupane;;-26.023289;23.369366
1212;South Africa;Eastern Cape;Tshukutshezi;;-31.443955;27.662518
1213;South Africa;North West;Tshunyane;;-26.040225;25.519384
1214;South Africa;North West;Tshwara;;-25.621258;27.934274
1215;South Africa;Limpopo;Tshware;;-23.867564;29.797306
1216;South Africa;North West;Tshwee;;-25.283333;27.716667
1217;South Africa;Limpopo;Tshweneslokasie;;-24.183333;29.5
1218;South Africa;Limpopo;Tsidintsing;;-24.340169;30.053204
1219;South Africa;North West;Tsilwana;;-26.412116;23.105723
1220;South Africa;Limpopo;Tsimanyane;;-24.830529;29.510895
1221;South Africa;North West;Tsimolomo;;-25.831372;24.685851
1222;South Africa;North West;Tsineng-Kop;;-27.058296;23.063005
1223;South Africa;North West;Tsineng;;-27.089892;23.08586
1224;South Africa;Eastern Cape;Tsitsa Bridge;;-31.240523;28.848317
1225;South Africa;Eastern Cape;Tsitsabrug;;-31.240523;28.848317
1226;South Africa;Eastern Cape;Tsitsa Hill;;-31.233333;28.85
1227;South Africa;Eastern Cape;Tsitsa;;-31.07282;28.491326
1228;South Africa;Eastern Cape;Tsitsikamma;;-32.220365;26.56967
1229;South Africa;North West;Tsitsing;;-25.468464;27.320632
1230;South Africa;Eastern Cape;Tsitsong;;-30.232678;28.811606
1231;South Africa;Eastern Cape;Tsitweni;;-30.232678;28.811606
1232;South Africa;Limpopo;Tskani;;-23.266667;30.1
1233;South Africa;Eastern Cape;Tsoelike;;-30.649777;28.234974
1234;South Africa;North West;Tsoe;;-26.272274;23.161907
1235;South Africa;Eastern Cape;Tsojana;;-31.941547;27.778161
1236;South Africa;Limpopo;Tsola Metse;;-23.189128;28.87272
1237;South Africa;Eastern Cape;Tsolobeng;;-30.64186;28.472126
1238;South Africa;Eastern Cape;Tsolokasi;;-31.883413;27.184457
1239;South Africa;Eastern Cape;Tsolokazi;;-31.883413;27.184457
1240;South Africa;Eastern Cape;Tsolo;;-31.307811;28.755409
1241;South Africa;Eastern Cape;Tsomo;;-32.036785;27.819944
1242;South Africa;North West;Tswaaneng;;-25.150499;27.118656
1243;South Africa;Mpumalanga;Tswafeng;;-24.770276;30.975281
1244;South Africa;Limpopo;Tswaing;;-24.336406;29.733717
1245;South Africa;Limpopo;Tswatago;;-24.666667;29.466667
1246;South Africa;Limpopo;Tswatsane;;-23.185584;29.072645
1247;South Africa;North West;Tswedintlhe;;-27.533333;24.833333
1248;South Africa;Eastern Cape;Tsweleni;;-31.238643;29.557905
1249;South Africa;Limpopo;Tswenyane;;-24.47485;30.608841
1250;South Africa;Limpopo;Tswera;;-22.76353;30.606099
1251;South Africa;Limpopo;Tswinga;;-23.016667;30.483333
1252;South Africa;Eastern Cape;Tubeni;;-32.05;28.733333
1253;South Africa;KwaZulu Natal;Tugela Beach;;-29.231163;31.487857
1254;South Africa;KwaZulu Natal;Tugela Estates;;-28.755789;30.160523
1255;South Africa;KwaZulu Natal;Tugela Ferry;;-28.746486;30.451263
1256;South Africa;KwaZulu Natal;Tugela Location;;-28.8;30.6
1257;South Africa;KwaZulu Natal;Tugela Mouth;;-29.231163;31.487857
1258;South Africa;KwaZulu Natal;Tugela Store;;-28.9;31.033333
1259;South Africa;KwaZulu Natal;Tugela;;-28.9;31.033333
1260;South Africa;Eastern Cape;Tugela;;-30.633333;27.216667
1261;South Africa;North West;Tuhutsang;;-26.05282;23.668665
1262;South Africa;Limpopo;Tuinplaas;;-24.9;28.733333
1263;South Africa;Limpopo;Tuissenek;;-24.066667;28.233333
1264;South Africa;Eastern Cape;Tukela;;-31.643367;28.88239
1265;South Africa;Eastern Cape;Tuku;;-33.246997;27.295571
1266;South Africa;Western Cape;Tulbagh Road;;-33.32019;19.097575
1267;South Africa;Western Cape;Tulbagh;;-33.28596;19.141163
1268;South Africa;Western Cape;Tulbaghweg;;-33.32019;19.097575
1269;South Africa;Free State;Tumahole;;-26.913577;27.481102
1270;South Africa;North West;Tumaskop;;-25.266667;26.85
1271;South Africa;Eastern Cape;Tungwana;;-31.967325;28.791516
1272;South Africa;Eastern Cape;Tungwane;;-31.998712;28.837278
1273;South Africa;Eastern Cape;Tunxe;;-31.604851;28.606472
1274;South Africa;Eastern Cape;Tunzini;;-32.066667;28.583333
1275;South Africa;Gauteng;Turffontein;;-26.241861;28.036932
1276;South Africa;Free State;Turflaagte;;-29.209209;26.243809
1277;South Africa;North West;Turfvlakte;;-25.633333;27.216667
1278;South Africa;KwaZulu Natal;Turton;;-30.517005;30.607561
1279;South Africa;Eastern Cape;Turveys Post;;-31.886207;26.579981
1280;South Africa;Mpumalanga;Tutuka;;-26.776945;29.352662
1281;South Africa;Eastern Cape;Tutura;;-32.383333;28.233333
1282;South Africa;Eastern Cape;Tuwa;;-33.252492;27.376258
1283;South Africa;Eastern Cape;Twane;;-31.601236;28.32225
1284;South Africa;Eastern Cape;Twazi;;-31.071789;29.565104
1285;South Africa;Eastern Cape;Tweedam;;-30.844242;26.877024
1286;South Africa;Mpumalanga;Tweedronk;;-26.911684;29.484808
1287;South Africa;North West;Tweed;;-26.565658;22.804684
1288;South Africa;Free State;Tweefontein;;-28.416667;29.083333
1289;South Africa;Eastern Cape;Tweefontein;;-31.260874;26.402271
1290;South Africa;Mpumalanga;Tweefontein;;-25.347628;28.835679
1291;South Africa;Western Cape;Tweefontein;;-33.607116;19.517043
1292;South Africa;Free State;Tweefout;;-30.609638;26.861605
1293;South Africa;Eastern Cape;Tweekoppies;;-30.82606;25.832112
1294;South Africa;Free State;Tweelingdrift;;-29.9;26.166667
1295;South Africa;North West;Tweelingspan;;-27.55874;25.005324
1296;South Africa;Free State;Tweeling;;-27.555131;28.516092
1297;South Africa;Northern Cape;Tweeloop;;-29.736982;17.441724
1298;South Africa;Eastern Cape;Tweerivieren;;-31.506554;26.054905
1299;South Africa;Eastern Cape;Twee Rivieren;;-33.840435;23.893264
1300;South Africa;Eastern Cape;Twee Riviere;;-33.840435;23.893264
1301;South Africa;Free State;Tweespruit;;-27.966667;28.6
1302;South Africa;Free State;Twee Spruit;;-28.133333;28.683333
1303;South Africa;Free State;Tweespruit;;-29.185207;27.031891
1304;South Africa;Limpopo;Tweetstroom;;-24.426278;28.107793
1305;South Africa;Free State;Tweevlei;;-30.636031;26.72676
1306;South Africa;Free State;Twellsdale;;-30.099738;26.988397
1307;South Africa;KwaZulu Natal;Twin Streams;;-29.516667;29.416667
1308;South Africa;Limpopo;Twinvallei;;-24.3;29.15
1309;South Africa;Free State;Twishoek;;-28.433253;28.587358
1310;South Africa;Limpopo;Two Rivers Estate;;-24.2;26.883333
1311;South Africa;Eastern Cape;Two Rivers;;-33.840435;23.893264
1312;South Africa;Eastern Cape;Two Streams;;-31.465217;27.564275
1313;South Africa;North West;Twycross;;-26.25;26.083333
1314;South Africa;Limpopo;Twyfelaar;;-24.533333;30.166667
1315;South Africa;Free State;Twyfelfontein;;-29.461936;25.801511
1316;South Africa;Eastern Cape;Tyara;;-31.479953;28.991607
1317;South Africa;Eastern Cape;Tyata;;-33.073571;27.36134
1318;South Africa;Eastern Cape;Tyelebane;;-31.797985;28.39392
1319;South Africa;Eastern Cape;Tyeni;;-30.883333;28.583333
1320;South Africa;Western Cape;Tygerberg Hills;;-33.883333;18.6
1321;South Africa;North West;Tygerfontein;;-26.887898;27.20813
1322;South Africa;Eastern Cape;Tyinindini;;-30.565811;27.565894
1323;South Africa;Eastern Cape;Tyira;;-31.135395;28.790403
1324;South Africa;Eastern Cape;Tyityaba;;-32.567186;28.087304
1325;South Africa;Eastern Cape;Tyityane;;-31.540435;29.437043
1326;South Africa;Eastern Cape;Tyiw;;-32.166667;28.683333
1327;South Africa;Free State;Tylden;;-29.488843;26.853179
1328;South Africa;Eastern Cape;Tylden;;-32.115282;27.07072
1329;South Africa;Eastern Cape;Tyolo;;-31.94892;28.76603
1330;South Africa;Eastern Cape;Tyolweni;;-31.700911;28.498319
1331;South Africa;Eastern Cape;Tyumbu;;-31.648654;28.793824
1332;South Africa;Eastern Cape;Tyusha;;-32.764935;27.318002
1333;South Africa;Eastern Cape;Tyutyuza;;-32.790779;26.928601
1334;South Africa;Limpopo;Tzaneen;;-23.833222;30.163506
1335;South Africa;KwaZulu Natal;Ubambulos;;-30.516667;30.033333
1336;South Africa;KwaZulu Natal;Ubango;;-30.733978;30.43077
1337;South Africa;KwaZulu Natal;Ubombo;;-27.563673;32.085699
1338;South Africa;Eastern Cape;Ugie;;-31.198088;28.233511
1339;South Africa;Western Cape;Uilenkraal;;-34.56973;19.466537
1340;South Africa;Western Cape;Uilkraalmond;;-34.602505;19.409008
1341;South Africa;Free State;Uitenhagesdoorn;;-29.348934;25.548247
1342;South Africa;Eastern Cape;Uitenhage;;-33.75757;25.397099
1343;South Africa;KwaZulu Natal;Uithoek;;-27.551412;31.462266
1344;South Africa;Free State;Uithoek;;-29.028681;25.833668
1345;South Africa;Northern Cape;Uithou;;-27.666667;21.966667
1346;South Africa;Eastern Cape;Uitkeer;;-32.766667;25.666667
1347;South Africa;Eastern Cape;Uitkomst;;-32.747663;24.655329
1348;South Africa;Eastern Cape;Uitkoms;;-32.747663;24.655329
1349;South Africa;Northern Cape;Uitkoms;;-29.235808;22.480694
1350;South Africa;North West;Uitkoms;;-26.806857;23.306899
1351;South Africa;Western Cape;Uitkoms;;-33.273295;19.341026
1352;South Africa;Free State;Uitkyk;;-28.65019;28.175749
1353;South Africa;Eastern Cape;Uitkyk;;-30.758235;25.99937
1354;South Africa;Mpumalanga;Uitkyk;;-26.338381;29.204903
1355;South Africa;Northern Cape;Uitkyk;;-29.958112;20.15181
1356;South Africa;Limpopo;Uitkyk;;-23.05;29.966667
1357;South Africa;North West;Uitkyk;;-26.204154;25.575446
1358;South Africa;North West;Uitlanderskraal;;-25.116667;26.733333
1359;South Africa;Eastern Cape;Uitryk;;-31.453447;26.475487
1360;South Africa;KwaZulu Natal;Uitsien;;-29.066667;30.1
1361;South Africa;Eastern Cape;Uitsig;;-30.834229;26.757068
1362;South Africa;Northern Cape;Uitsig;;-29.250802;20.76843
1363;South Africa;Limpopo;Uitsig;;-23.134853;29.883901
1364;South Africa;Mpumalanga;Uitskot;;-26.05;29.816667
1365;South Africa;Northern Cape;Uitsoek;;-27.416667;21.683333
1366;South Africa;Limpopo;Uitspan;;-23.645694;28.862888
1367;South Africa;Limpopo;Uitual;;-24.066667;29.666667
1368;South Africa;KwaZulu Natal;Uitval;;-28.470912;30.254739
1369;South Africa;Limpopo;Uitval;;-24.066667;29.666667
1370;South Africa;Mpumalanga;Uitvlugt;;-24.987447;29.925706
1371;South Africa;Western Cape;Uitvlugt;;-31.680471;18.876088
1372;South Africa;Mpumalanga;Uitvlug;;-24.936081;28.998917
1373;South Africa;Northern Cape;Uitvlug;;-29.469169;22.244443
1374;South Africa;KwaZulu Natal;Uitzicht;;-27.714067;31.070537
1375;South Africa;Free State;Uitzicht;;-29.919164;26.442971
1376;South Africa;Northern Cape;Uitzicht;;-29.250802;20.76843
1377;South Africa;Limpopo;Uitzicht;;-23.511688;28.66579
1378;South Africa;KwaZulu Natal;Uitzien;;-29.066667;30.1
1379;South Africa;Northern Cape;Ulco;;-28.316667;24.216667
1380;South Africa;KwaZulu Natal;Ulundi;;-28.335233;31.416172
1381;South Africa;Eastern Cape;Uluxa;;-30.916667;28.483333
1382;South Africa;Northern Cape;Ulyate;;-27.883333;22.183333
1383;South Africa;Free State;Umballa;;-30.343436;26.945928
1384;South Africa;Limpopo;Umbatho;;-23.083333;30.666667
1385;South Africa;Mpumalanga;Umbila;;-26.253587;28.564171
1386;South Africa;KwaZulu Natal;Umbilo;;-29.891486;30.973184
1387;South Africa;KwaZulu Natal;Umbogintwini;;-30.017571;30.917074
1388;South Africa;KwaZulu Natal;Umbumbulu;;-29.985293;30.70278
1389;South Africa;KwaZulu Natal;Umdhloti Beach;;-29.663187;31.121034
1390;South Africa;Eastern Cape;Umdikane;;-31.819677;29.261281
1391;South Africa;KwaZulu Natal;Umdloti Beach;;-29.663187;31.121034
1392;South Africa;KwaZulu Natal;Umdloti;;-29.663187;31.121034
1393;South Africa;Eastern Cape;Umfanta;;-30.718236;28.546822
1394;South Africa;KwaZulu Natal;Umfolosi;;-28.490087;32.16939
1395;South Africa;KwaZulu Natal;Umfolozi;;-28.490087;32.16939
1396;South Africa;Eastern Cape;Umga Flats;;-31.437299;28.366718
1397;South Africa;Eastern Cape;Umgazana;;-31.639428;29.309822
1398;South Africa;KwaZulu Natal;Umgeni Dam;;-29.583333;30.616667
1399;South Africa;Eastern Cape;Umgomanzi;;-32.290631;28.067338
1400;South Africa;Eastern Cape;Umgwali Reserve;;-32.444656;27.576255
1401;South Africa;KwaZulu Natal;uMhali;;-29.477585;31.218049
1402;South Africa;KwaZulu Natal;Umhalnga Rocks;;-29.716667;31.066667
1403;South Africa;KwaZulu Natal;Umhlanga Rocks;;-29.716667;31.066667
1404;South Africa;KwaZulu Natal;Umhlatuzi Valley;;-28.788389;31.943964
1405;South Africa;KwaZulu Natal;Umhloti Beach;;-29.663187;31.121034
1406;South Africa;KwaZulu Natal;Umkhomazi;;-29.469043;30.862457
1407;South Africa;KwaZulu Natal;uMkhumbikazana;;-27.516276;32.4324
1408;South Africa;KwaZulu Natal;Umkomaas;;-30.206742;30.797759
1409;South Africa;KwaZulu Natal;Umkomanzi;;-29.866667;30.583333
1410;South Africa;KwaZulu Natal;Umlaasweg;;-29.739571;30.504467
1411;South Africa;KwaZulu Natal;Umlalazi;;-28.956567;31.75431
1412;South Africa;KwaZulu Natal;Umlazi;;-29.965717;30.886394
1413;South Africa;Eastern Cape;Umnga Flats;;-31.437299;28.366718
1414;South Africa;Eastern Cape;Umngazana;;-31.688519;29.385225
1415;South Africa;Eastern Cape;Umngazi Mouth;;-31.672683;29.454194
1416;South Africa;KwaZulu Natal;Umpumulo;;-29.141243;31.042468
1417;South Africa;Eastern Cape;Umsigazi School;;-32.45;28.233333
1418;South Africa;KwaZulu Natal;Umsinsini;;-30.483333;30.516667
1419;South Africa;Eastern Cape;Umtakatyi;;-31.846348;29.246577
1420;South Africa;Eastern Cape;Umtamvana;;-30.73232;29.825313
1421;South Africa;Eastern Cape;Umtata Mouth;;-31.945467;29.198673
1422;South Africa;Eastern Cape;Umtata;;-31.588926;28.784431
1423;South Africa;Eastern Cape;Umtati;;-32.933333;27.166667
1424;South Africa;KwaZulu Natal;Umtentweni Railway Station;;-30.716191;30.464739
1425;South Africa;KwaZulu Natal;Umtentweni;;-30.716191;30.464739
1426;South Africa;Eastern Cape;Umtwakazi;;-32.383333;26.616667
1427;South Africa;KwaZulu Natal;Umtwalumi;;-30.490741;30.630388
1428;South Africa;KwaZulu Natal;Umvoti Location;;-29.15;30.75
1429;South Africa;KwaZulu Natal;Umvoti Lokasie;;-29.15;30.75
1430;South Africa;KwaZulu Natal;Umvoti Mouth;;-29.390098;31.330769
1431;South Africa;KwaZulu Natal;Umvoti;;-29.15;30.75
1432;South Africa;KwaZulu Natal;Umyozene;;-29.212287;31.074099
1433;South Africa;KwaZulu Natal;Umzimbete;;-28.817048;31.898951
1434;South Africa;KwaZulu Natal;Umzimbethe;;-28.817048;31.898951
1435;South Africa;Eastern Cape;Umzimkulu;;-30.26081;29.940216
1436;South Africa;Eastern Cape;Umzimvubu;;-31.622911;29.544772
1437;South Africa;Eastern Cape;Umzinhlavan;;-31.411734;29.482307
1438;South Africa;KwaZulu Natal;Umzinto;;-30.310934;30.662324
1439;South Africa;KwaZulu Natal;Umzumbe;;-30.619612;30.543484
1440;South Africa;KwaZulu Natal;Underberg;;-29.790837;29.494481
1441;South Africa;Eastern Cape;Uniedal;;-30.879389;26.972837
1442;South Africa;Limpopo;Uniepark;;-23.937168;29.472788
1443;South Africa;Western Cape;Uniondale Road;;-33.466667;23.033333
1444;South Africa;Eastern Cape;Uniondale;;-31.021382;29.317549
1445;South Africa;Western Cape;Uniondale;;-33.658951;23.12317
1446;South Africa;Western Cape;Uniondaleweg;;-33.466667;23.033333
1447;South Africa;Free State;Union;;-30.08268;26.358398
1448;South Africa;Eastern Cape;Union;;-31.408406;28.147719
1449;South Africa;Free State;Universitas;;-29.121225;26.183258
1450;South Africa;KwaZulu Natal;Untunjambili;;-28.932282;30.936904
1451;South Africa;KwaZulu Natal;Upathe Mission;;-28.959448;30.350491
1452;South Africa;KwaZulu Natal;Upati;;-28.959448;30.350491
1453;South Africa;KwaZulu Natal;Upepeni;;-30.421498;30.152045
1454;South Africa;Northern Cape;Upington;;-28.447758;21.256121
1455;South Africa;Eastern Cape;Upper Agnes;;-31.656897;27.064458
1456;South Africa;Eastern Cape;Upper Bisi;;-30.291577;29.725455
1457;South Africa;Eastern Cape;Upper Bolotwa;;-31.890264;28.254188
1458;South Africa;Eastern Cape;Upper Cala;;-31.531783;27.573896
1459;South Africa;Eastern Cape;Upper Ciko;;-32.255685;28.552718
1460;South Africa;Eastern Cape;Upper Clifton;;-32.33059;26.132706
1461;South Africa;Eastern Cape;Upper Didimana;;-32.150906;26.573075
1462;South Africa;Northern Cape;Upper Gong-Gong;;-28.490848;24.414937
1463;South Africa;Eastern Cape;Upper Gretna;;-31.506154;26.616201
1464;South Africa;Eastern Cape;Upper Gungululu;;-31.429524;28.860576
1465;South Africa;Eastern Cape;Upper Gungulu;;-31.429524;28.860576
1466;South Africa;Eastern Cape;Upper Gwadu;;-32.2;28.633333
1467;South Africa;Western Cape;Upper Kouga;;-33.666667;23.466667
1468;South Africa;Eastern Cape;Upper Lonely;;-31.75;25.683333
1469;South Africa;Eastern Cape;Upper Mcambalala;;-31.883333;27.516667
1470;South Africa;Eastern Cape;Upper Mcambala;;-31.883333;27.516667
1471;South Africa;Eastern Cape;Upper Mjika;;-31.373655;28.608632
1472;South Africa;Eastern Cape;Upper Mkata;;-31.286792;29.388172
1473;South Africa;Eastern Cape;Upper Mnyolo;;-31.455036;28.287657
1474;South Africa;Eastern Cape;Upper Ncuncuzo;;-31.89263;27.624336
1475;South Africa;Eastern Cape;Upper Ndonga;;-31.652956;27.31559
1476;South Africa;Eastern Cape;Upper Ndwana;;-31.551288;27.515026
1477;South Africa;Eastern Cape;Upper Ngqwara;;-31.747219;28.734166
1478;South Africa;Eastern Cape;Upper Nywara;;-31.953008;28.328793
1479;South Africa;Eastern Cape;Upper Qora;;-32.2;28.25
1480;South Africa;Eastern Cape;Upper Qumanco;;-31.796918;27.821322
1481;South Africa;Eastern Cape;Upper Rabula;;-32.716667;27.2
1482;South Africa;Eastern Cape;Upper Roza;;-31.2;28.9
1483;South Africa;Limpopo;Upper Shingwidzi;;-23.183333;31.15
1484;South Africa;Eastern Cape;Upper Sinxago;;-31.150909;28.593178
1485;South Africa;Eastern Cape;Upper Tabase;;-31.560088;28.588976
1486;South Africa;Eastern Cape;Upper Telle;;-30.595885;27.736667
1487;South Africa;KwaZulu Natal;Upper Tongaat;;-29.433333;31.016667
1488;South Africa;Eastern Cape;Upper Tsitana;;-30.832161;28.301844
1489;South Africa;Eastern Cape;Upper Tsitsana;;-30.832161;28.301844
1490;South Africa;Eastern Cape;Upper Tsojana;;-31.916667;27.666667
1491;South Africa;Eastern Cape;Upper Umjika;;-31.373655;28.608632
1492;South Africa;Eastern Cape;Upper Xongora;;-31.677031;28.522142
1493;South Africa;Free State;Ursula;;-29.012701;26.0716
1494;South Africa;Limpopo;Usutu;;-22.568201;28.585033
1495;South Africa;Limpopo;Utlha;;-24.702312;31.44154
1496;South Africa;KwaZulu Natal;Utrecht;;-27.658623;30.32166
1497;South Africa;Limpopo;Utsane;;-23.92416;29.166008
1498;South Africa;North West;Utsili;;-27.1;23.366667
1499;South Africa;KwaZulu Natal;Uvongo Beach;;-30.832136;30.397903
1500;South Africa;KwaZulu Natal;Uvongostrand;;-30.832136;30.397903
1501;South Africa;KwaZulu Natal;Uvongo;;-30.832136;30.397903
1502;South Africa;Eastern Cape;Uvongo;;-31.408473;26.586536
1503;South Africa;Free State;Uysklip;;-29.383333;26.65
1504;South Africa;KwaZulu Natal;Vaalbank;;-27.708744;31.041256
1505;South Africa;Free State;Vaalbank;;-29.485381;26.687563
1506;South Africa;Eastern Cape;Vaalbank;;-30.762164;26.323185
1507;South Africa;Eastern Cape;Vaalblok;;-32.590838;25.143682
1508;South Africa;North West;Vaalboschhoek;;-27.769856;24.465261
1509;South Africa;Limpopo;Vaalboschlaagte;;-24.333333;29.566667
1510;South Africa;Free State;Vaalburg;;-28.333333;28.833333
1511;South Africa;Eastern Cape;Vaaldrift;;-31.5899;25.566575
1512;South Africa;Mpumalanga;Vaalhoek;;-24.749155;30.776938
1513;South Africa;Northern Cape;Vaal Koppies;;-28.533333;21.35
1514;South Africa;KwaZulu Natal;Vaalkop;;-28.466199;30.196201
1515;South Africa;Free State;Vaalkraal;;-29.518772;26.277664
1516;South Africa;Mpumalanga;Vaalkrans;;-26.1;29.333333
1517;South Africa;Limpopo;Vaalkrans;;-23.675463;30.041879
1518;South Africa;North West;Vaalpan;;-26.64758;23.416427
1519;South Africa;Free State;Vaalpark;;-26.769247;27.849837
1520;South Africa;Gauteng;Vaalplaas;;-25.642767;28.888198
1521;South Africa;North West;Vaalplaats;;-26.320215;25.656476
1522;South Africa;Eastern Cape;Vaalpoort;;-30.82116;25.944385
1523;South Africa;Free State;Vaal Power Station Village;;-26.766667;27.95
1524;South Africa;Northern Cape;Vaalpunt;;-30.29712;21.429944
1525;South Africa;Northern Cape;Vaalputs;;-29.3;21.366667
1526;South Africa;Northern Cape;vaalput;;-30.033333;21.783333
1527;South Africa;North West;Vaal Reefs;;-26.932181;26.737338
1528;South Africa;North West;Vaal Reef;;-26.932181;26.737338
1529;South Africa;Free State;Vaalspruit;;-29.9278;26.784571
1530;South Africa;Free State;Vaal;;-26.766667;27.95
1531;South Africa;Gauteng;Vaalview;;-26.725751;27.75105
1532;South Africa;Limpopo;Vaalwater;;-24.166667;28.1
1533;South Africa;Free State;Vaarvel;;-28.35;28.716667
1534;South Africa;Northern Cape;Vaderlandspan;;-29.837652;21.100471
1535;South Africa;Eastern Cape;Vaku;;-32.651097;28.40028
1536;South Africa;Eastern Cape;Valdai Hills;;-31.345478;26.203461
1537;South Africa;Eastern Cape;Vale End;;-31.705891;26.084462
1538;South Africa;Eastern Cape;Valelo's Rest;;-31.733333;27.35
1539;South Africa;Limpopo;Valencia Estate;;-23.870114;30.277184
1540;South Africa;Limpopo;Valencia;;-23.870114;30.277184
1541;South Africa;Gauteng;Valhalla;;-25.805838;28.149428
1542;South Africa;Gauteng;Valley Nedersettings;;-26.518393;28.01536
1543;South Africa;Gauteng;Valley Settlements;;-26.518393;28.01536
1544;South Africa;Eastern Cape;Valley View;;-31.347898;29.358476
1545;South Africa;Eastern Cape;Valray;;-32.016667;28.833333
1546;South Africa;Mpumalanga;Valsfontein;;-25.116667;29.083333
1547;South Africa;Northern Cape;Valspan;;-27.915503;24.813784
1548;South Africa;Limpopo;Van Alphens Viei;;-24.433333;28.666667
1549;South Africa;Eastern Cape;Van de Merwes Fontein;;-31.239015;26.941105
1550;South Africa;Gauteng;Vanderbijlpark;;-26.711711;27.837949
1551;South Africa;Eastern Cape;Van Der Kemp;;-32.816667;28.1
1552;South Africa;Northern Cape;Vanderkloof;;-30.001575;24.746396
1553;South Africa;Limpopo;Van der Merwes Kraal;;-24.666667;29.45
1554;South Africa;Gauteng;Van der Merweskroon;;-26.610564;27.922278
1555;South Africa;Gauteng;Van der Merwe;;-25.721667;28.496944
1556;South Africa;Northern Cape;Van der Spuy;;-27.983333;22.283333
1557;South Africa;Mpumalanga;Vandyksdrif;;-26.096866;29.324377
1558;South Africa;Mpumalanga;Van Dyks;;-26.083041;29.319948
1559;South Africa;Free State;Van Heerdenskraal;;-29.182071;25.874979
1560;South Africa;Free State;Van Reenen;;-28.374339;29.380385
1561;South Africa;Western Cape;Van Rhynsdorf;;-31.608885;18.739679
1562;South Africa;Western Cape;Vanrhynsdorp;;-31.608885;18.739679
1563;South Africa;Western Cape;Van Riebeeckstrand;;-33.701225;18.443114
1564;South Africa;Eastern Cape;Van Riebeekhoogte;;-33.7675;25.414444
1565;South Africa;Northern Cape;Van Rooi's Vlei;;-27.783333;20.133333
1566;South Africa;KwaZulu Natal;Van Rooyen;;-28.116667;30.35
1567;South Africa;Eastern Cape;Van Stadensriviermond;;-33.968059;25.221946
1568;South Africa;Free State;Van Staden's Rust;;-29.987368;27.0163
1569;South Africa;Free State;Van Stadensrus;;-29.987368;27.0163
1570;South Africa;KwaZulu Natal;Van Tonders Pass;;-28.366667;30.283333
1571;South Africa;Free State;Van Tonderspoortjie;;-29.402809;25.729275
1572;South Africa;KwaZulu Natal;Vant's Drift;;-28.242456;30.503279
1573;South Africa;KwaZulu Natal;Vantsdrif;;-28.242456;30.503279
1574;South Africa;Eastern Cape;Van Vuurenshoek;;-31.740108;25.97173
1575;South Africa;Western Cape;Van Wijksdorp;;-33.748863;21.460873
1576;South Africa;Western Cape;Van Wyksdorp;;-33.748863;21.460873
1577;South Africa;North West;Vanwykshuis;;-25.644123;24.082278
1578;South Africa;Gauteng;Van Wyksrust;;-26.325172;27.879704
1579;South Africa;Free State;Van Wyksrus;;-30.156067;26.472589
1580;South Africa;Gauteng;Van Wyksrus;;-26.325172;27.879704
1581;South Africa;Northern Cape;Van Wyksvlei Settlements;;-30.3;21.833333
1582;South Africa;Northern Cape;Van Wyksvlei;;-30.35101;21.82498
1583;South Africa;Eastern Cape;Van Zyls Kraal;;-31.287657;26.806078
1584;South Africa;Free State;Vanzylsplaas;;-29.283333;27.3
1585;South Africa;Northern Cape;Van Zylsrust;;-26.878326;22.052295
1586;South Africa;Northern Cape;Van Zylsrus;;-26.878326;22.052295
1587;South Africa;Western Cape;Varkieskloof;;-33.567427;22.451398
1588;South Africa;Northern Cape;Varsput;;-29.290101;21.366538
1589;South Africa;Mpumalanga;Varty;;-24.783333;31.5
1590;South Africa;Western Cape;Vasco;;-33.905771;18.560636
1591;South Africa;Gauteng;Vasfontein;;-25.541448;28.238862
1592;South Africa;Limpopo;Veekraal;;-23.902418;29.906405
1593;South Africa;Eastern Cape;Veelsgeluk;;-31.228429;26.808945
1594;South Africa;Eastern Cape;Veeplaas;;-33.866667;25.566667
1595;South Africa;Eastern Cape;Veeplaats;;-33.866667;25.566667
1596;South Africa;Limpopo;Veeplaats;;-24.516667;29.6
1597;South Africa;Eastern Cape;Veepos;;-31.266667;25.916667
1598;South Africa;Northern Cape;Veepos;;-29.033333;22.466667
1599;South Africa;Northern Cape;Veertien Strome;;-28.066667;24.883333
1600;South Africa;Northern Cape;Veggat;;-29.6;17.483333
1601;South Africa;Eastern Cape;Vegkoppies;;-31.313047;26.257069
1602;South Africa;Western Cape;Velddrift;;-32.785184;18.178589
1603;South Africa;Western Cape;Velddrif;;-32.785184;18.178589
1604;South Africa;KwaZulu Natal;Veldenvlei;;-28.739945;32.06162
1605;South Africa;Eastern Cape;Velebi;;-32.416667;28.416667
1606;South Africa;Western Cape;Vembeksbaai;;-34.556167;20.407939
1607;South Africa;Western Cape;Venbekbaai;;-34.556167;20.407939
1608;South Africa;Limpopo;Vendaland;;-22.966667;30.583333
1609;South Africa;Northern Cape;Vendors Puts;;-30.05;20.433333
1610;South Africa;Mpumalanga;Ventera;;-26.925779;29.000495
1611;South Africa;Eastern Cape;Venter Fontein;;-30.6;26.433333
1612;South Africa;Gauteng;Venterpos-West;;-26.266667;27.633333
1613;South Africa;Free State;Ventersburg;;-28.085614;27.138143
1614;South Africa;Eastern Cape;Ventersdam;;-31.286498;26.764398
1615;South Africa;North West;Ventersdorp;;-26.314011;26.822231
1616;South Africa;Eastern Cape;Ventershoop;;-30.933753;25.962955
1617;South Africa;Free State;Venterskroon;;-26.9;27.266667
1618;South Africa;Gauteng;Venterspost;;-26.274035;27.621188
1619;South Africa;Gauteng;Venterspos;;-26.274035;27.621188
1620;South Africa;Eastern Cape;Ventersrust;;-31.476207;27.406151
1621;South Africa;Eastern Cape;Ventersrus;;-31.22922;26.898693
1622;South Africa;Eastern Cape;Venterstad;;-30.776187;25.799231
1623;South Africa;Eastern Cape;Venus;;-30.900656;26.612374
1624;South Africa;Limpopo;Verbrandehoek;;-23.879112;29.900656
1625;South Africa;Eastern Cape;Verdien;;-31.53673;26.701053
1626;South Africa;Northern Cape;Verdors Puts;;-30.05;20.433333
1627;South Africa;KwaZulu Natal;Verdriet;;-27.983333;30.15
1628;South Africa;Free State;Verdun;;-30.448411;26.443635
1629;South Africa;Eastern Cape;Verdun;;-30.739607;26.538348
1630;South Africa;North West;Verdwaal;;-26.086947;25.910374
1631;South Africa;Eastern Cape;Vereeniging;;-31.533333;26.2
